zip,lat,lng,city,state_id,state_name,zcta,parent_zcta,population,density,county_fips,county_name,county_weights,county_names_all,county_fips_all,imprecise,military,timezone
1001,42.06262,-72.62521,Agawam,MA,Massachusetts,TRUE,,16136,551.7,25013,Hampden,"{""25013"": 100}",Hampden,25013,FALSE,FALSE,America/New_York
1002,42.37633,-72.46462,Amherst,MA,Massachusetts,TRUE,,24726,179.3,25015,Hampshire,"{""25015"": 93.26, ""25011"": 6.74}",Hampshire|Franklin,25015|25011,FALSE,FALSE,America/New_York
1003,42.39135,-72.52327,Amherst,MA,Massachusetts,TRUE,,12458,5981.7,25015,Hampshire,"{""25015"": 100}",Hampshire,25015,FALSE,FALSE,America/New_York
1005,42.42117,-72.10655,Barre,MA,Massachusetts,TRUE,,4786,42.8,25027,Worcester,"{""25027"": 100}",Worcester,25027,FALSE,FALSE,America/New_York
1007,42.28163,-72.40009,Belchertown,MA,Massachusetts,TRUE,,15406,108.4,25015,Hampshire,"{""25015"": 100}",Hampshire,25015,FALSE,FALSE,America/New_York
1008,42.18234,-72.95819,Blandford,MA,Massachusetts,TRUE,,1324,8.4,25013,Hampden,"{""25013"": 94.36, ""25003"": 5.64}",Hampden|Berkshire,25013|25003,FALSE,FALSE,America/New_York
1009,42.21133,-72.34189,Bondsville,MA,Massachusetts,TRUE,,790,437.3,25013,Hampden,"{""25013"": 99.06, ""25015"": 0.94}",Hampden|Hampshire,25013|25015,FALSE,FALSE,America/New_York
1010,42.12904,-72.20597,Brimfield,MA,Massachusetts,TRUE,,3694,40.5,25013,Hampden,"{""25013"": 98.73, ""25027"": 1.27}",Hampden|Worcester,25013|25027,FALSE,FALSE,America/New_York
1011,42.30233,-72.96448,Chester,MA,Massachusetts,TRUE,,1205,14.2,25013,Hampden,"{""25013"": 77.54, ""25015"": 22.46}",Hampden|Hampshire,25013|25015,FALSE,FALSE,America/New_York
1012,42.38495,-72.84675,Chesterfield,MA,Massachusetts,TRUE,,387,12.4,25015,Hampshire,"{""25015"": 100}",Hampshire,25015,FALSE,FALSE,America/New_York
1013,42.16059,-72.60788,Chicopee,MA,Massachusetts,TRUE,,22950,1565.6,25013,Hampden,"{""25013"": 100}",Hampden,25013,FALSE,FALSE,America/New_York
1020,42.17618,-72.56538,Chicopee,MA,Massachusetts,TRUE,,30230,936.7,25013,Hampden,"{""25013"": 100}",Hampden,25013,FALSE,FALSE,America/New_York
1022,42.19721,-72.54249,Chicopee,MA,Massachusetts,TRUE,,2045,164,25013,Hampden,"{""25013"": 100}",Hampden,25013,FALSE,FALSE,America/New_York
1026,42.46858,-72.92296,Cummington,MA,Massachusetts,TRUE,,1005,13.8,25015,Hampshire,"{""25015"": 90.46, ""25003"": 9.54}",Hampshire|Berkshire,25015|25003,FALSE,FALSE,America/New_York
1027,42.29506,-72.74303,Easthampton,MA,Massachusetts,TRUE,,17678,168.2,25015,Hampshire,"{""25015"": 100}",Hampshire,25015,FALSE,FALSE,America/New_York
1028,42.05967,-72.49899,East Longmeadow,MA,Massachusetts,TRUE,,16283,486.6,25013,Hampden,"{""25013"": 100}",Hampden,25013,FALSE,FALSE,America/New_York
1029,42.19402,-73.05067,East Otis,MA,Massachusetts,TRUE,,652,25.2,25003,Berkshire,"{""25003"": 100}",Berkshire,25003,FALSE,FALSE,America/New_York
1030,42.06869,-72.67967,Feeding Hills,MA,Massachusetts,TRUE,,12374,397.2,25013,Hampden,"{""25013"": 100}",Hampden,25013,FALSE,FALSE,America/New_York
1031,42.32782,-72.19191,Gilbertville,MA,Massachusetts,TRUE,,1715,98.3,25027,Worcester,"{""25027"": 100}",Worcester,25027,FALSE,FALSE,America/New_York
1032,42.45313,-72.81965,Goshen,MA,Massachusetts,TRUE,,503,20.1,25015,Hampshire,"{""25015"": 100}",Hampshire,25015,FALSE,FALSE,America/New_York
1033,42.26082,-72.50361,Granby,MA,Massachusetts,TRUE,,6088,84.5,25015,Hampshire,"{""25015"": 100}",Hampshire,25015,FALSE,FALSE,America/New_York
1034,42.0826,-72.95611,Granville,MA,Massachusetts,TRUE,,2100,12,25013,Hampden,"{""25013"": 100}",Hampden,25013,FALSE,FALSE,America/New_York
1035,42.35563,-72.5692,Hadley,MA,Massachusetts,TRUE,,5299,88.6,25015,Hampshire,"{""25015"": 100}",Hampshire,25015,FALSE,FALSE,America/New_York
1036,42.0638,-72.4157,Hampden,MA,Massachusetts,TRUE,,4937,97.2,25013,Hampden,"{""25013"": 100}",Hampden,25013,FALSE,FALSE,America/New_York
1037,42.37063,-72.19466,Hardwick,MA,Massachusetts,TRUE,,486,10.1,25027,Worcester,"{""25027"": 100}",Worcester,25027,FALSE,FALSE,America/New_York
1038,42.38466,-72.60559,Hatfield,MA,Massachusetts,TRUE,,2534,106.1,25015,Hampshire,"{""25015"": 100}",Hampshire,25015,FALSE,FALSE,America/New_York
1039,42.41049,-72.69188,Haydenville,MA,Massachusetts,TRUE,,1660,38.9,25015,Hampshire,"{""25015"": 58.67, ""25011"": 41.33}",Hampshire|Franklin,25015|25011,FALSE,FALSE,America/New_York
1040,42.21251,-72.64109,Holyoke,MA,Massachusetts,TRUE,,37949,692.3,25013,Hampden,"{""25013"": 100}",Hampden,25013,FALSE,FALSE,America/New_York
1050,42.29092,-72.87526,Huntington,MA,Massachusetts,TRUE,,2573,24,25015,Hampshire,"{""25015"": 68.98, ""25013"": 31.02}",Hampshire|Hampden,25015|25013,FALSE,FALSE,America/New_York
1053,42.35205,-72.71032,Leeds,MA,Massachusetts,TRUE,,2033,136.5,25015,Hampshire,"{""25015"": 100}",Hampshire,25015,FALSE,FALSE,America/New_York
1054,42.47381,-72.48768,Leverett,MA,Massachusetts,TRUE,,1704,28.7,25011,Franklin,"{""25011"": 100}",Franklin,25011,FALSE,FALSE,America/New_York
1056,42.19211,-72.45805,Ludlow,MA,Massachusetts,TRUE,,20846,296,25013,Hampden,"{""25013"": 100}",Hampden,25013,FALSE,FALSE,America/New_York
1057,42.09118,-72.32392,Monson,MA,Massachusetts,TRUE,,8200,71.1,25013,Hampden,"{""25013"": 100}",Hampden,25013,FALSE,FALSE,America/New_York
1060,42.32218,-72.63126,Northampton,MA,Massachusetts,TRUE,,15237,541.3,25015,Hampshire,"{""25015"": 100}",Hampshire,25015,FALSE,FALSE,America/New_York
1062,42.32146,-72.69244,Florence,MA,Massachusetts,TRUE,,9188,203.3,25015,Hampshire,"{""25015"": 100}",Hampshire,25015,FALSE,FALSE,America/New_York
1063,42.31962,-72.63951,Northampton,MA,Massachusetts,TRUE,,2121,9267.2,25015,Hampshire,"{""25015"": 100}",Hampshire,25015,FALSE,FALSE,America/New_York
1066,42.40742,-72.64032,North Hatfield,MA,Massachusetts,TRUE,,115,35.2,25015,Hampshire,"{""25015"": 99.4, ""25011"": 0.6}",Hampshire|Franklin,25015|25011,FALSE,FALSE,America/New_York
1068,42.35125,-72.04776,Oakham,MA,Massachusetts,TRUE,,1623,28.9,25027,Worcester,"{""25027"": 100}",Worcester,25027,FALSE,FALSE,America/New_York
1069,42.18798,-72.30578,Palmer,MA,Massachusetts,TRUE,,9077,124.9,25013,Hampden,"{""25013"": 100}",Hampden,25013,FALSE,FALSE,America/New_York
1070,42.51958,-72.92504,Plainfield,MA,Massachusetts,TRUE,,593,11.5,25015,Hampshire,"{""25015"": 99.4, ""25003"": 0.6}",Hampshire|Berkshire,25015|25003,FALSE,FALSE,America/New_York
1071,42.16029,-72.8598,Russell,MA,Massachusetts,TRUE,,1219,30,25013,Hampden,"{""25013"": 100}",Hampden,25013,FALSE,FALSE,America/New_York
1072,42.46327,-72.41893,Shutesbury,MA,Massachusetts,TRUE,,1447,29.3,25011,Franklin,"{""25011"": 100}",Franklin,25011,FALSE,FALSE,America/New_York
1073,42.23084,-72.73856,Southampton,MA,Massachusetts,TRUE,,6212,85.2,25015,Hampshire,"{""25015"": 100}",Hampshire,25015,FALSE,FALSE,America/New_York
1074,42.3837,-72.10021,South Barre,MA,Massachusetts,TRUE,,749,1115.2,25027,Worcester,"{""25027"": 100}",Worcester,25027,FALSE,FALSE,America/New_York
1075,42.25672,-72.57928,South Hadley,MA,Massachusetts,TRUE,,17410,379.3,25015,Hampshire,"{""25015"": 100}",Hampshire,25015,FALSE,FALSE,America/New_York
1077,42.05441,-72.77851,Southwick,MA,Massachusetts,TRUE,,9222,115.4,25013,Hampden,"{""25013"": 100}",Hampden,25013,FALSE,FALSE,America/New_York
1079,42.18508,-72.33406,Thorndike,MA,Massachusetts,TRUE,,282,67.7,25013,Hampden,"{""25013"": 100}",Hampden,25013,FALSE,FALSE,America/New_York
1080,42.18228,-72.36515,Three Rivers,MA,Massachusetts,TRUE,,2308,535.1,25013,Hampden,"{""25013"": 100}",Hampden,25013,FALSE,FALSE,America/New_York
1081,42.06232,-72.23085,Wales,MA,Massachusetts,TRUE,,1704,45.5,25013,Hampden,"{""25013"": 100}",Hampden,25013,FALSE,FALSE,America/New_York
1082,42.29816,-72.27676,Ware,MA,Massachusetts,TRUE,,10418,85.6,25015,Hampshire,"{""25015"": 73.12, ""25027"": 26.75, ""25013"": 0.13}",Hampshire|Worcester|Hampden,25015|25027|25013,FALSE,FALSE,America/New_York
1083,42.20652,-72.19906,Warren,MA,Massachusetts,TRUE,,2746,83.1,25027,Worcester,"{""25027"": 100}",Worcester,25027,FALSE,FALSE,America/New_York
1084,42.38589,-72.88165,West Chesterfield,MA,Massachusetts,TRUE,,101,4.7,25015,Hampshire,"{""25015"": 100}",Hampshire,25015,FALSE,FALSE,America/New_York
1085,42.15375,-72.76961,Westfield,MA,Massachusetts,TRUE,,41466,268.1,25013,Hampden,"{""25013"": 100}",Hampden,25013,FALSE,FALSE,America/New_York
1088,42.38981,-72.6465,West Hatfield,MA,Massachusetts,TRUE,,654,48.1,25015,Hampshire,"{""25015"": 100}",Hampshire,25015,FALSE,FALSE,America/New_York
1089,42.12532,-72.65025,West Springfield,MA,Massachusetts,TRUE,,28635,660.8,25013,Hampden,"{""25013"": 100}",Hampden,25013,FALSE,FALSE,America/New_York
1092,42.20008,-72.23715,West Warren,MA,Massachusetts,TRUE,,1123,64.5,25027,Worcester,"{""25027"": 100}",Worcester,25027,FALSE,FALSE,America/New_York
1093,42.44335,-72.65099,Whately,MA,Massachusetts,TRUE,,149,13.3,25011,Franklin,"{""25011"": 100}",Franklin,25011,FALSE,FALSE,America/New_York
1094,42.36481,-72.13548,Wheelwright,MA,Massachusetts,TRUE,,64,34.3,25027,Worcester,"{""25027"": 100}",Worcester,25027,FALSE,FALSE,America/New_York
1095,42.12763,-72.42994,Wilbraham,MA,Massachusetts,TRUE,,14615,250.9,25013,Hampden,"{""25013"": 100}",Hampden,25013,FALSE,FALSE,America/New_York
1096,42.40968,-72.77213,Williamsburg,MA,Massachusetts,TRUE,,2566,27.6,25015,Hampshire,"{""25015"": 92.01, ""25011"": 7.99}",Hampshire|Franklin,25015|25011,FALSE,FALSE,America/New_York
1097,42.17722,-72.83175,Woronoco,MA,Massachusetts,TRUE,,45,10,25013,Hampden,"{""25013"": 100}",Hampden,25013,FALSE,FALSE,America/New_York
1098,42.39551,-72.94315,Worthington,MA,Massachusetts,TRUE,,1019,12.3,25015,Hampshire,"{""25015"": 100}",Hampshire,25015,FALSE,FALSE,America/New_York
1103,42.10443,-72.58997,Springfield,MA,Massachusetts,TRUE,,2336,2074.4,25013,Hampden,"{""25013"": 100}",Hampden,25013,FALSE,FALSE,America/New_York
1104,42.13326,-72.56733,Springfield,MA,Massachusetts,TRUE,,21745,1604.7,25013,Hampden,"{""25013"": 100}",Hampden,25013,FALSE,FALSE,America/New_York
1105,42.09911,-72.57865,Springfield,MA,Massachusetts,TRUE,,11469,3672.1,25013,Hampden,"{""25013"": 100}",Hampden,25013,FALSE,FALSE,America/New_York
1106,42.04877,-72.57163,Longmeadow,MA,Massachusetts,TRUE,,15961,642.9,25013,Hampden,"{""25013"": 100}",Hampden,25013,FALSE,FALSE,America/New_York
1107,42.12116,-72.60642,Springfield,MA,Massachusetts,TRUE,,12270,3071.6,25013,Hampden,"{""25013"": 100}",Hampden,25013,FALSE,FALSE,America/New_York
1108,42.0814,-72.55866,Springfield,MA,Massachusetts,TRUE,,27409,3075.4,25013,Hampden,"{""25013"": 100}",Hampden,25013,FALSE,FALSE,America/New_York
1109,42.11839,-72.54876,Springfield,MA,Massachusetts,TRUE,,31418,2229.4,25013,Hampden,"{""25013"": 100}",Hampden,25013,FALSE,FALSE,America/New_York
1118,42.09476,-72.5253,Springfield,MA,Massachusetts,TRUE,,15009,1611.6,25013,Hampden,"{""25013"": 100}",Hampden,25013,FALSE,FALSE,America/New_York
1119,42.12452,-72.51126,Springfield,MA,Massachusetts,TRUE,,14059,1537.5,25013,Hampden,"{""25013"": 100}",Hampden,25013,FALSE,FALSE,America/New_York
1128,42.09497,-72.48806,Springfield,MA,Massachusetts,TRUE,,3252,1132.2,25013,Hampden,"{""25013"": 100}",Hampden,25013,FALSE,FALSE,America/New_York
1129,42.1211,-72.4877,Springfield,MA,Massachusetts,TRUE,,5993,673.4,25013,Hampden,"{""25013"": 100}",Hampden,25013,FALSE,FALSE,America/New_York
1144,42.10189,-72.59091,Springfield,MA,Massachusetts,TRUE,,0,0,25013,Hampden,"{""25013"": 100}",Hampden,25013,FALSE,FALSE,America/New_York
1151,42.15294,-72.50883,Indian Orchard,MA,Massachusetts,TRUE,,9627,1569.2,25013,Hampden,"{""25013"": 100}",Hampden,25013,FALSE,FALSE,America/New_York
1201,42.45614,-73.28114,Pittsfield,MA,Massachusetts,TRUE,,45072,288.3,25003,Berkshire,"{""25003"": 100}",Berkshire,25003,FALSE,FALSE,America/New_York
1220,42.62686,-73.11873,Adams,MA,Massachusetts,TRUE,,8106,136.7,25003,Berkshire,"{""25003"": 100}",Berkshire,25003,FALSE,FALSE,America/New_York
1222,42.06242,-73.32146,Ashley Falls,MA,Massachusetts,TRUE,,611,51.4,25003,Berkshire,"{""25003"": 100}",Berkshire,25003,FALSE,FALSE,America/New_York
1223,42.31118,-73.09835,Becket,MA,Massachusetts,TRUE,,2588,14.4,25003,Berkshire,"{""25003"": 100}",Berkshire,25003,FALSE,FALSE,America/New_York
1224,42.50622,-73.19841,Berkshire,MA,Massachusetts,TRUE,,201,166.8,25003,Berkshire,"{""25003"": 100}",Berkshire,25003,FALSE,FALSE,America/New_York
1225,42.56385,-73.1512,Cheshire,MA,Massachusetts,TRUE,,3234,46.6,25003,Berkshire,"{""25003"": 100}",Berkshire,25003,FALSE,FALSE,America/New_York
1226,42.47954,-73.15329,Dalton,MA,Massachusetts,TRUE,,6304,111.9,25003,Berkshire,"{""25003"": 100}",Berkshire,25003,FALSE,FALSE,America/New_York
1229,42.29411,-73.35227,Glendale,MA,Massachusetts,TRUE,,213,33.1,25003,Berkshire,"{""25003"": 100}",Berkshire,25003,FALSE,FALSE,America/New_York
1230,42.18197,-73.34244,Great Barrington,MA,Massachusetts,TRUE,,8813,35.1,25003,Berkshire,"{""25003"": 100}",Berkshire,25003,FALSE,FALSE,America/New_York
1235,42.43181,-73.07336,Hinsdale,MA,Massachusetts,TRUE,,2456,20.3,25003,Berkshire,"{""25003"": 100}",Berkshire,25003,FALSE,FALSE,America/New_York
1236,42.26923,-73.37999,Housatonic,MA,Massachusetts,TRUE,,1593,93,25003,Berkshire,"{""25003"": 100}",Berkshire,25003,FALSE,FALSE,America/New_York
1237,42.5529,-73.25373,Lanesborough,MA,Massachusetts,TRUE,,2269,17.8,25003,Berkshire,"{""25003"": 100}",Berkshire,25003,FALSE,FALSE,America/New_York
1238,42.30072,-73.22553,Lee,MA,Massachusetts,TRUE,,5893,82.4,25003,Berkshire,"{""25003"": 100}",Berkshire,25003,FALSE,FALSE,America/New_York
1240,42.37567,-73.26466,Lenox,MA,Massachusetts,TRUE,,5024,81.1,25003,Berkshire,"{""25003"": 100}",Berkshire,25003,FALSE,FALSE,America/New_York
1242,42.3334,-73.24967,Lenox Dale,MA,Massachusetts,TRUE,,165,138.7,25003,Berkshire,"{""25003"": 100}",Berkshire,25003,FALSE,FALSE,America/New_York
1243,42.34752,-73.03467,Middlefield,MA,Massachusetts,TRUE,,196,5.3,25015,Hampshire,"{""25015"": 100}",Hampshire,25015,FALSE,FALSE,America/New_York
1244,42.10924,-73.27475,Mill River,MA,Massachusetts,TRUE,,243,16.3,25003,Berkshire,"{""25003"": 100}",Berkshire,25003,FALSE,FALSE,America/New_York
1245,42.19043,-73.21579,Monterey,MA,Massachusetts,TRUE,,828,12.4,25003,Berkshire,"{""25003"": 100}",Berkshire,25003,FALSE,FALSE,America/New_York
1247,42.69813,-73.09264,North Adams,MA,Massachusetts,TRUE,,14967,125.9,25003,Berkshire,"{""25003"": 100}",Berkshire,25003,FALSE,FALSE,America/New_York
1253,42.20751,-73.1118,Otis,MA,Massachusetts,TRUE,,903,16.4,25003,Berkshire,"{""25003"": 100}",Berkshire,25003,FALSE,FALSE,America/New_York
1254,42.37972,-73.36608,Richmond,MA,Massachusetts,TRUE,,962,25.7,25003,Berkshire,"{""25003"": 100}",Berkshire,25003,FALSE,FALSE,America/New_York
1255,42.1068,-73.12213,Sandisfield,MA,Massachusetts,TRUE,,850,6.5,25003,Berkshire,"{""25003"": 100}",Berkshire,25003,FALSE,FALSE,America/New_York
1256,42.59627,-73.01958,Savoy,MA,Massachusetts,TRUE,,733,7.9,25003,Berkshire,"{""25003"": 100}",Berkshire,25003,FALSE,FALSE,America/New_York
1257,42.0976,-73.37241,Sheffield,MA,Massachusetts,TRUE,,2331,26.6,25003,Berkshire,"{""25003"": 100}",Berkshire,25003,FALSE,FALSE,America/New_York
1258,42.09396,-73.46616,South Egremont,MA,Massachusetts,TRUE,,191,3.3,25003,Berkshire,"{""25003"": 100}",Berkshire,25003,FALSE,FALSE,America/New_York
1259,42.07316,-73.23282,Southfield,MA,Massachusetts,TRUE,,778,13.1,25003,Berkshire,"{""25003"": 100}",Berkshire,25003,FALSE,FALSE,America/New_York
1260,42.26663,-73.2712,South Lee,MA,Massachusetts,TRUE,,20,3,25003,Berkshire,"{""25003"": 100}",Berkshire,25003,FALSE,FALSE,America/New_York
1262,42.30433,-73.32013,Stockbridge,MA,Massachusetts,TRUE,,1652,32.3,25003,Berkshire,"{""25003"": 100}",Berkshire,25003,FALSE,FALSE,America/New_York
1264,42.23997,-73.19686,Tyringham,MA,Massachusetts,TRUE,,184,4.9,25003,Berkshire,"{""25003"": 100}",Berkshire,25003,FALSE,FALSE,America/New_York
1266,42.30264,-73.39846,West Stockbridge,MA,Massachusetts,TRUE,,919,17.6,25003,Berkshire,"{""25003"": 100}",Berkshire,25003,FALSE,FALSE,America/New_York
1267,42.66593,-73.24209,Williamstown,MA,Massachusetts,TRUE,,7985,52,25003,Berkshire,"{""25003"": 100}",Berkshire,25003,FALSE,FALSE,America/New_York
1270,42.51297,-73.04859,Windsor,MA,Massachusetts,TRUE,,1002,12,25003,Berkshire,"{""25003"": 100}",Berkshire,25003,FALSE,FALSE,America/New_York
1301,42.62375,-72.60379,Greenfield,MA,Massachusetts,TRUE,,17876,272.3,25011,Franklin,"{""25011"": 100}",Franklin,25011,FALSE,FALSE,America/New_York
1330,42.51772,-72.81556,Ashfield,MA,Massachusetts,TRUE,,1711,19.2,25011,Franklin,"{""25011"": 100}",Franklin,25011,FALSE,FALSE,America/New_York
1331,42.56793,-72.18324,Athol,MA,Massachusetts,TRUE,,13865,98.8,25027,Worcester,"{""25027"": 99.71, ""25011"": 0.29}",Worcester|Franklin,25027|25011,FALSE,FALSE,America/New_York
1337,42.69512,-72.57731,Bernardston,MA,Massachusetts,TRUE,,2515,26,25011,Franklin,"{""25011"": 100}",Franklin,25011,FALSE,FALSE,America/New_York
1338,42.5814,-72.80309,Buckland,MA,Massachusetts,TRUE,,79,23.3,25011,Franklin,"{""25011"": 100}",Franklin,25011,FALSE,FALSE,America/New_York
1339,42.61099,-72.88846,Charlemont,MA,Massachusetts,TRUE,,1361,9,25011,Franklin,"{""25011"": 100}",Franklin,25011,FALSE,FALSE,America/New_York
1340,42.68805,-72.73205,Colrain,MA,Massachusetts,TRUE,,1807,13.4,25011,Franklin,"{""25011"": 100}",Franklin,25011,FALSE,FALSE,America/New_York
1341,42.50734,-72.70221,Conway,MA,Massachusetts,TRUE,,1605,18.5,25011,Franklin,"{""25011"": 100}",Franklin,25011,FALSE,FALSE,America/New_York
1342,42.54384,-72.6058,Deerfield,MA,Massachusetts,TRUE,,1313,27.5,25011,Franklin,"{""25011"": 100}",Franklin,25011,FALSE,FALSE,America/New_York
1343,42.66766,-72.98822,Drury,MA,Massachusetts,TRUE,,190,6.4,25003,Berkshire,"{""25003"": 100}",Berkshire,25003,FALSE,FALSE,America/New_York
1344,42.60756,-72.42916,Erving,MA,Massachusetts,TRUE,,1639,45.9,25011,Franklin,"{""25011"": 100}",Franklin,25011,FALSE,FALSE,America/New_York
1346,42.6706,-72.81323,Heath,MA,Massachusetts,TRUE,,453,13.1,25011,Franklin,"{""25011"": 100}",Franklin,25011,FALSE,FALSE,America/New_York
1347,42.56027,-72.51321,Lake Pleasant,MA,Massachusetts,TRUE,,114,123.2,25011,Franklin,"{""25011"": 100}",Franklin,25011,FALSE,FALSE,America/New_York
1349,42.56656,-72.47045,Millers Falls,MA,Massachusetts,TRUE,,753,29.5,25011,Franklin,"{""25011"": 100}",Franklin,25011,FALSE,FALSE,America/New_York
1350,42.72259,-72.98291,Monroe Bridge,MA,Massachusetts,TRUE,,115,4.2,25011,Franklin,"{""25011"": 100}",Franklin,25011,FALSE,FALSE,America/New_York
1351,42.54162,-72.52069,Montague,MA,Massachusetts,TRUE,,2644,52.1,25011,Franklin,"{""25011"": 100}",Franklin,25011,FALSE,FALSE,America/New_York
1354,42.63282,-72.51136,Gill,MA,Massachusetts,TRUE,,1831,51.4,25011,Franklin,"{""25011"": 100}",Franklin,25011,FALSE,FALSE,America/New_York
1355,42.45101,-72.33141,New Salem,MA,Massachusetts,TRUE,,963,7.8,25011,Franklin,"{""25011"": 100}",Franklin,25011,FALSE,FALSE,America/New_York
1360,42.67575,-72.446,Northfield,MA,Massachusetts,TRUE,,2875,32.4,25011,Franklin,"{""25011"": 100}",Franklin,25011,FALSE,FALSE,America/New_York
1364,42.60449,-72.29263,Orange,MA,Massachusetts,TRUE,,7668,82.2,25011,Franklin,"{""25011"": 100}",Franklin,25011,FALSE,FALSE,America/New_York
1366,42.48858,-72.18564,Petersham,MA,Massachusetts,TRUE,,1173,12.3,25027,Worcester,"{""25027"": 100}",Worcester,25027,FALSE,FALSE,America/New_York
1367,42.69674,-72.91387,Rowe,MA,Massachusetts,TRUE,,574,9,25011,Franklin,"{""25011"": 100}",Franklin,25011,FALSE,FALSE,America/New_York
1368,42.67815,-72.18557,Royalston,MA,Massachusetts,TRUE,,1497,13,25027,Worcester,"{""25027"": 100}",Worcester,25027,FALSE,FALSE,America/New_York
1370,42.59607,-72.72915,Shelburne Falls,MA,Massachusetts,TRUE,,3641,29.2,25011,Franklin,"{""25011"": 100}",Franklin,25011,FALSE,FALSE,America/New_York
1373,42.47292,-72.61516,South Deerfield,MA,Massachusetts,TRUE,,4784,80.1,25011,Franklin,"{""25011"": 100}",Franklin,25011,FALSE,FALSE,America/New_York
1375,42.46475,-72.55489,Sunderland,MA,Massachusetts,TRUE,,3653,100.2,25011,Franklin,"{""25011"": 100}",Franklin,25011,FALSE,FALSE,America/New_York
1376,42.59273,-72.54591,Turners Falls,MA,Massachusetts,TRUE,,5032,476.3,25011,Franklin,"{""25011"": 100}",Franklin,25011,FALSE,FALSE,America/New_York
1378,42.67711,-72.34057,Warwick,MA,Massachusetts,TRUE,,861,8.9,25011,Franklin,"{""25011"": 100}",Franklin,25011,FALSE,FALSE,America/New_York
1379,42.54149,-72.3989,Wendell,MA,Massachusetts,TRUE,,742,13.3,25011,Franklin,"{""25011"": 100}",Franklin,25011,FALSE,FALSE,America/New_York
1380,42.58675,-72.40264,Wendell Depot,MA,Massachusetts,TRUE,,32,1.9,25011,Franklin,"{""25011"": 100}",Franklin,25011,FALSE,FALSE,America/New_York
1420,42.58559,-71.81693,Fitchburg,MA,Massachusetts,TRUE,,41677,535.3,25027,Worcester,"{""25027"": 100}",Worcester,25027,FALSE,FALSE,America/New_York
1430,42.66069,-71.9232,Ashburnham,MA,Massachusetts,TRUE,,6450,67.8,25027,Worcester,"{""25027"": 100}",Worcester,25027,FALSE,FALSE,America/New_York
1431,42.67652,-71.82322,Ashby,MA,Massachusetts,TRUE,,3188,52,25017,Middlesex,"{""25017"": 100}",Middlesex,25017,FALSE,FALSE,America/New_York
1432,42.56351,-71.57059,Ayer,MA,Massachusetts,TRUE,,8124,368.2,25017,Middlesex,"{""25017"": 100}",Middlesex,25017,FALSE,FALSE,America/New_York
1434,42.53149,-71.61663,Devens,MA,Massachusetts,TRUE,,1889,112,25027,Worcester,"{""25027"": 82.26, ""25017"": 17.74}",Worcester|Middlesex,25027|25017,FALSE,FALSE,America/New_York
1436,42.60579,-72.08958,Baldwinville,MA,Massachusetts,TRUE,,3720,159.7,25027,Worcester,"{""25027"": 100}",Worcester,25027,FALSE,FALSE,America/New_York
1438,42.56028,-72.03583,East Templeton,MA,Massachusetts,TRUE,,192,228.3,25027,Worcester,"{""25027"": 100}",Worcester,25027,FALSE,FALSE,America/New_York
1440,42.58797,-71.98649,Gardner,MA,Massachusetts,TRUE,,21298,335.5,25027,Worcester,"{""25027"": 100}",Worcester,25027,FALSE,FALSE,America/New_York
1450,42.61368,-71.56139,Groton,MA,Massachusetts,TRUE,,11228,132.3,25017,Middlesex,"{""25017"": 100}",Middlesex,25017,FALSE,FALSE,America/New_York
1451,42.50005,-71.57754,Harvard,MA,Massachusetts,TRUE,,5359,98.3,25027,Worcester,"{""25027"": 100}",Worcester,25027,FALSE,FALSE,America/New_York
1452,42.48378,-72.00514,Hubbardston,MA,Massachusetts,TRUE,,4339,40.8,25027,Worcester,"{""25027"": 100}",Worcester,25027,FALSE,FALSE,America/New_York
1453,42.51961,-71.76583,Leominster,MA,Massachusetts,TRUE,,43635,639.2,25027,Worcester,"{""25027"": 100}",Worcester,25027,FALSE,FALSE,America/New_York
1460,42.53503,-71.4891,Littleton,MA,Massachusetts,TRUE,,10150,237.3,25017,Middlesex,"{""25017"": 100}",Middlesex,25017,FALSE,FALSE,America/New_York
1462,42.58994,-71.72036,Lunenburg,MA,Massachusetts,TRUE,,11822,171.5,25027,Worcester,"{""25027"": 100}",Worcester,25027,FALSE,FALSE,America/New_York
1463,42.67126,-71.60429,Pepperell,MA,Massachusetts,TRUE,,11693,200,25017,Middlesex,"{""25017"": 100}",Middlesex,25017,FALSE,FALSE,America/New_York
1464,42.57411,-71.6475,Shirley,MA,Massachusetts,TRUE,,7017,179.1,25017,Middlesex,"{""25017"": 100}",Middlesex,25017,FALSE,FALSE,America/New_York
1468,42.55324,-72.06879,Templeton,MA,Massachusetts,TRUE,,4157,73.1,25027,Worcester,"{""25027"": 100}",Worcester,25027,FALSE,FALSE,America/New_York
1469,42.66514,-71.69161,Townsend,MA,Massachusetts,TRUE,,6803,121.5,25017,Middlesex,"{""25017"": 100}",Middlesex,25017,FALSE,FALSE,America/New_York
1473,42.55122,-71.90266,Westminster,MA,Massachusetts,TRUE,,8289,90.3,25027,Worcester,"{""25027"": 100}",Worcester,25027,FALSE,FALSE,America/New_York
1474,42.67088,-71.7508,West Townsend,MA,Massachusetts,TRUE,,2249,78.3,25017,Middlesex,"{""25017"": 100}",Middlesex,25017,FALSE,FALSE,America/New_York
1475,42.66675,-72.04902,Winchendon,MA,Massachusetts,TRUE,,10194,92,25027,Worcester,"{""25027"": 100}",Worcester,25027,FALSE,FALSE,America/New_York
1501,42.19689,-71.84549,Auburn,MA,Massachusetts,TRUE,,16780,424.7,25027,Worcester,"{""25027"": 100}",Worcester,25027,FALSE,FALSE,America/New_York
1503,42.38378,-71.63552,Berlin,MA,Massachusetts,TRUE,,3311,98.5,25027,Worcester,"{""25027"": 100}",Worcester,25027,FALSE,FALSE,America/New_York
1504,42.0399,-71.53125,Blackstone,MA,Massachusetts,TRUE,,9211,320.1,25027,Worcester,"{""25027"": 100}",Worcester,25027,FALSE,FALSE,America/New_York
1505,42.35633,-71.72123,Boylston,MA,Massachusetts,TRUE,,4896,117.7,25027,Worcester,"{""25027"": 100}",Worcester,25027,FALSE,FALSE,America/New_York
1506,42.19364,-72.10441,Brookfield,MA,Massachusetts,TRUE,,3442,85.6,25027,Worcester,"{""25027"": 100}",Worcester,25027,FALSE,FALSE,America/New_York
1507,42.13509,-71.96803,Charlton,MA,Massachusetts,TRUE,,13359,122.3,25027,Worcester,"{""25027"": 100}",Worcester,25027,FALSE,FALSE,America/New_York
1510,42.4119,-71.68883,Clinton,MA,Massachusetts,TRUE,,15430,1053.9,25027,Worcester,"{""25027"": 100}",Worcester,25027,FALSE,FALSE,America/New_York
1515,42.20328,-72.04669,East Brookfield,MA,Massachusetts,TRUE,,2120,83,25027,Worcester,"{""25027"": 100}",Worcester,25027,FALSE,FALSE,America/New_York
1516,42.0528,-71.75106,Douglas,MA,Massachusetts,TRUE,,9287,97.8,25027,Worcester,"{""25027"": 100}",Worcester,25027,FALSE,FALSE,America/New_York
1518,42.11342,-72.11632,Fiskdale,MA,Massachusetts,TRUE,,2835,89.4,25027,Worcester,"{""25027"": 100}",Worcester,25027,FALSE,FALSE,America/New_York
1519,42.20077,-71.67892,Grafton,MA,Massachusetts,TRUE,,7738,279.8,25027,Worcester,"{""25027"": 100}",Worcester,25027,FALSE,FALSE,America/New_York
1520,42.33685,-71.85181,Holden,MA,Massachusetts,TRUE,,16864,345.9,25027,Worcester,"{""25027"": 100}",Worcester,25027,FALSE,FALSE,America/New_York
1521,42.06012,-72.16592,Holland,MA,Massachusetts,TRUE,,2576,81,25013,Hampden,"{""25013"": 100}",Hampden,25013,FALSE,FALSE,America/New_York
1522,42.38142,-71.87111,Jefferson,MA,Massachusetts,TRUE,,3021,74.4,25027,Worcester,"{""25027"": 100}",Worcester,25027,FALSE,FALSE,America/New_York
1523,42.48176,-71.68079,Lancaster,MA,Massachusetts,TRUE,,8470,119.2,25027,Worcester,"{""25027"": 100}",Worcester,25027,FALSE,FALSE,America/New_York
1524,42.24919,-71.91989,Leicester,MA,Massachusetts,TRUE,,6110,148.4,25027,Worcester,"{""25027"": 100}",Worcester,25027,FALSE,FALSE,America/New_York
1525,42.09899,-71.64296,Linwood,MA,Massachusetts,TRUE,,0,0,25027,Worcester,"{""25027"": 100}",Worcester,25027,FALSE,FALSE,America/New_York
1527,42.19228,-71.77397,Millbury,MA,Massachusetts,TRUE,,13899,344.5,25027,Worcester,"{""25027"": 100}",Worcester,25027,FALSE,FALSE,America/New_York
1529,42.03906,-71.57767,Millville,MA,Massachusetts,TRUE,,3156,250.6,25027,Worcester,"{""25027"": 100}",Worcester,25027,FALSE,FALSE,America/New_York
1531,42.31929,-72.12794,New Braintree,MA,Massachusetts,TRUE,,925,17.2,25027,Worcester,"{""25027"": 100}",Worcester,25027,FALSE,FALSE,America/New_York
1532,42.32314,-71.64621,Northborough,MA,Massachusetts,TRUE,,15694,328,25027,Worcester,"{""25027"": 100}",Worcester,25027,FALSE,FALSE,America/New_York
1534,42.13991,-71.64433,Northbridge,MA,Massachusetts,TRUE,,6097,247.4,25027,Worcester,"{""25027"": 100}",Worcester,25027,FALSE,FALSE,America/New_York
1535,42.2695,-72.07794,North Brookfield,MA,Massachusetts,TRUE,,4739,86,25027,Worcester,"{""25027"": 100}",Worcester,25027,FALSE,FALSE,America/New_York
1536,42.23189,-71.69219,North Grafton,MA,Massachusetts,TRUE,,7119,321,25027,Worcester,"{""25027"": 100}",Worcester,25027,FALSE,FALSE,America/New_York
1537,42.16177,-71.89217,North Oxford,MA,Massachusetts,TRUE,,1821,103.2,25027,Worcester,"{""25027"": 100}",Worcester,25027,FALSE,FALSE,America/New_York
1540,42.11649,-71.85819,Oxford,MA,Massachusetts,TRUE,,11521,232.9,25027,Worcester,"{""25027"": 100}",Worcester,25027,FALSE,FALSE,America/New_York
1541,42.45649,-71.88128,Princeton,MA,Massachusetts,TRUE,,3500,38.1,25027,Worcester,"{""25027"": 100}",Worcester,25027,FALSE,FALSE,America/New_York
1542,42.20241,-71.90995,Rochdale,MA,Massachusetts,TRUE,,2572,235.7,25027,Worcester,"{""25027"": 100}",Worcester,25027,FALSE,FALSE,America/New_York
1543,42.38482,-71.96726,Rutland,MA,Massachusetts,TRUE,,9202,101.1,25027,Worcester,"{""25027"": 100}",Worcester,25027,FALSE,FALSE,America/New_York
1545,42.28419,-71.71558,Shrewsbury,MA,Massachusetts,TRUE,,38440,715.2,25027,Worcester,"{""25027"": 100}",Worcester,25027,FALSE,FALSE,America/New_York
1550,42.06039,-72.03377,Southbridge,MA,Massachusetts,TRUE,,17806,339.7,25027,Worcester,"{""25027"": 100}",Worcester,25027,FALSE,FALSE,America/New_York
1560,42.17496,-71.67762,South Grafton,MA,Massachusetts,TRUE,,4914,532.7,25027,Worcester,"{""25027"": 100}",Worcester,25027,FALSE,FALSE,America/New_York
1561,42.44581,-71.68845,South Lancaster,MA,Massachusetts,TRUE,,0,0,25027,Worcester,"{""25027"": 100}",Worcester,25027,FALSE,FALSE,America/New_York
1562,42.24715,-71.99189,Spencer,MA,Massachusetts,TRUE,,11961,140.6,25027,Worcester,"{""25027"": 100}",Worcester,25027,FALSE,FALSE,America/New_York
1564,42.44124,-71.77297,Sterling,MA,Massachusetts,TRUE,,8111,102.3,25027,Worcester,"{""25027"": 100}",Worcester,25027,FALSE,FALSE,America/New_York
1566,42.1047,-72.07745,Sturbridge,MA,Massachusetts,TRUE,,7054,109,25027,Worcester,"{""25027"": 100}",Worcester,25027,FALSE,FALSE,America/New_York
1568,42.17694,-71.60516,Upton,MA,Massachusetts,TRUE,,7926,144.2,25027,Worcester,"{""25027"": 100}",Worcester,25027,FALSE,FALSE,America/New_York
1569,42.05895,-71.63741,Uxbridge,MA,Massachusetts,TRUE,,14127,185.6,25027,Worcester,"{""25027"": 100}",Worcester,25027,FALSE,FALSE,America/New_York
1570,42.05206,-71.8485,Webster,MA,Massachusetts,TRUE,,17674,552.2,25027,Worcester,"{""25027"": 100}",Worcester,25027,FALSE,FALSE,America/New_York
1571,42.05501,-71.93519,Dudley,MA,Massachusetts,TRUE,,11886,220.3,25027,Worcester,"{""25027"": 100}",Worcester,25027,FALSE,FALSE,America/New_York
1581,42.26815,-71.61402,Westborough,MA,Massachusetts,TRUE,,21591,404.6,25027,Worcester,"{""25027"": 100}",Worcester,25027,FALSE,FALSE,America/New_York
1583,42.37034,-71.78502,West Boylston,MA,Massachusetts,TRUE,,7516,230.7,25027,Worcester,"{""25027"": 100}",Worcester,25027,FALSE,FALSE,America/New_York
1585,42.23762,-72.16311,West Brookfield,MA,Massachusetts,TRUE,,4942,68,25027,Worcester,"{""25027"": 100}",Worcester,25027,FALSE,FALSE,America/New_York
1588,42.11837,-71.66836,Whitinsville,MA,Massachusetts,TRUE,,10357,494.1,25027,Worcester,"{""25027"": 100}",Worcester,25027,FALSE,FALSE,America/New_York
1590,42.13387,-71.75179,Sutton,MA,Massachusetts,TRUE,,9287,110.4,25027,Worcester,"{""25027"": 100}",Worcester,25027,FALSE,FALSE,America/New_York
1602,42.27219,-71.84946,Worcester,MA,Massachusetts,TRUE,,25791,1708.4,25027,Worcester,"{""25027"": 100}",Worcester,25027,FALSE,FALSE,America/New_York
1603,42.24373,-71.84429,Worcester,MA,Massachusetts,TRUE,,21034,1792.8,25027,Worcester,"{""25027"": 100}",Worcester,25027,FALSE,FALSE,America/New_York
1604,42.25085,-71.7683,Worcester,MA,Massachusetts,TRUE,,39988,2327.5,25027,Worcester,"{""25027"": 100}",Worcester,25027,FALSE,FALSE,America/New_York
1605,42.28979,-71.78802,Worcester,MA,Massachusetts,TRUE,,31086,2122.8,25027,Worcester,"{""25027"": 100}",Worcester,25027,FALSE,FALSE,America/New_York
1606,42.31367,-71.79614,Worcester,MA,Massachusetts,TRUE,,22269,1435.8,25027,Worcester,"{""25027"": 100}",Worcester,25027,FALSE,FALSE,America/New_York
1607,42.22684,-71.79037,Worcester,MA,Massachusetts,TRUE,,8755,1117,25027,Worcester,"{""25027"": 100}",Worcester,25027,FALSE,FALSE,America/New_York
1608,42.2621,-71.80145,Worcester,MA,Massachusetts,TRUE,,4951,3970,25027,Worcester,"{""25027"": 100}",Worcester,25027,FALSE,FALSE,America/New_York
1609,42.28592,-71.82853,Worcester,MA,Massachusetts,TRUE,,23184,2397.3,25027,Worcester,"{""25027"": 100}",Worcester,25027,FALSE,FALSE,America/New_York
1610,42.24645,-71.80968,Worcester,MA,Massachusetts,TRUE,,28719,5200,25027,Worcester,"{""25027"": 100}",Worcester,25027,FALSE,FALSE,America/New_York
1611,42.23945,-71.87702,Cherry Valley,MA,Massachusetts,TRUE,,2401,271.3,25027,Worcester,"{""25027"": 100}",Worcester,25027,FALSE,FALSE,America/New_York
1612,42.31037,-71.93095,Paxton,MA,Massachusetts,TRUE,,4996,126.4,25027,Worcester,"{""25027"": 100}",Worcester,25027,FALSE,FALSE,America/New_York
1701,42.32195,-71.43796,Framingham,MA,Massachusetts,TRUE,,32270,737.7,25017,Middlesex,"{""25017"": 100}",Middlesex,25017,FALSE,FALSE,America/New_York
1702,42.28242,-71.43428,Framingham,MA,Massachusetts,TRUE,,39761,1869.7,25017,Middlesex,"{""25017"": 100}",Middlesex,25017,FALSE,FALSE,America/New_York
1718,42.52165,-71.42983,Acton,MA,Massachusetts,TRUE,,528,1478.9,25017,Middlesex,"{""25017"": 100}",Middlesex,25017,FALSE,FALSE,America/New_York
1719,42.48837,-71.51779,Boxborough,MA,Massachusetts,TRUE,,5468,205.3,25017,Middlesex,"{""25017"": 100}",Middlesex,25017,FALSE,FALSE,America/New_York
1720,42.48397,-71.43809,Acton,MA,Massachusetts,TRUE,,23322,458.9,25017,Middlesex,"{""25017"": 100}",Middlesex,25017,FALSE,FALSE,America/New_York
1721,42.25726,-71.46867,Ashland,MA,Massachusetts,TRUE,,18694,585,25017,Middlesex,"{""25017"": 100}",Middlesex,25017,FALSE,FALSE,America/New_York
1730,42.4995,-71.27799,Bedford,MA,Massachusetts,TRUE,,14478,449.2,25017,Middlesex,"{""25017"": 100}",Middlesex,25017,FALSE,FALSE,America/New_York
1731,42.46422,-71.28202,Hanscom Afb,MA,Massachusetts,TRUE,,1745,288.3,25017,Middlesex,"{""25017"": 100}",Middlesex,25017,FALSE,FALSE,America/New_York
1740,42.43616,-71.60728,Bolton,MA,Massachusetts,TRUE,,5698,110.3,25027,Worcester,"{""25027"": 100}",Worcester,25027,FALSE,FALSE,America/New_York
1741,42.53001,-71.35128,Carlisle,MA,Massachusetts,TRUE,,5209,131.7,25017,Middlesex,"{""25017"": 100}",Middlesex,25017,FALSE,FALSE,America/New_York
1742,42.46221,-71.36504,Concord,MA,Massachusetts,TRUE,,18337,293.5,25017,Middlesex,"{""25017"": 100}",Middlesex,25017,FALSE,FALSE,America/New_York
1745,42.29155,-71.50101,Fayville,MA,Massachusetts,TRUE,,660,653.6,25027,Worcester,"{""25027"": 100}",Worcester,25027,FALSE,FALSE,America/New_York
1746,42.19775,-71.44499,Holliston,MA,Massachusetts,TRUE,,14964,309.7,25017,Middlesex,"{""25017"": 100}",Middlesex,25017,FALSE,FALSE,America/New_York
1747,42.12477,-71.535,Hopedale,MA,Massachusetts,TRUE,,6024,449.4,25027,Worcester,"{""25027"": 100}",Worcester,25027,FALSE,FALSE,America/New_York
1748,42.2255,-71.53781,Hopkinton,MA,Massachusetts,TRUE,,19050,280.5,25017,Middlesex,"{""25017"": 100}",Middlesex,25017,FALSE,FALSE,America/New_York
1749,42.38868,-71.54648,Hudson,MA,Massachusetts,TRUE,,19959,668.5,25017,Middlesex,"{""25017"": 100}",Middlesex,25017,FALSE,FALSE,America/New_York
1752,42.3494,-71.54681,Marlborough,MA,Massachusetts,TRUE,,41398,766.2,25017,Middlesex,"{""25017"": 100}",Middlesex,25017,FALSE,FALSE,America/New_York
1754,42.4264,-71.45607,Maynard,MA,Massachusetts,TRUE,,10663,792.2,25017,Middlesex,"{""25017"": 100}",Middlesex,25017,FALSE,FALSE,America/New_York
1756,42.09301,-71.55146,Mendon,MA,Massachusetts,TRUE,,6266,136.1,25027,Worcester,"{""25027"": 100}",Worcester,25027,FALSE,FALSE,America/New_York
1757,42.15723,-71.51978,Milford,MA,Massachusetts,TRUE,,30473,777.4,25027,Worcester,"{""25027"": 100}",Worcester,25027,FALSE,FALSE,America/New_York
1760,42.28436,-71.34966,Natick,MA,Massachusetts,TRUE,,36520,954,25017,Middlesex,"{""25017"": 100}",Middlesex,25017,FALSE,FALSE,America/New_York
1770,42.23416,-71.37532,Sherborn,MA,Massachusetts,TRUE,,4404,107.7,25017,Middlesex,"{""25017"": 100}",Middlesex,25017,FALSE,FALSE,America/New_York
1772,42.30144,-71.5304,Southborough,MA,Massachusetts,TRUE,,9781,277.4,25027,Worcester,"{""25027"": 100}",Worcester,25027,FALSE,FALSE,America/New_York
1773,42.42572,-71.31013,Lincoln,MA,Massachusetts,TRUE,,5257,146.4,25017,Middlesex,"{""25017"": 100}",Middlesex,25017,FALSE,FALSE,America/New_York
1775,42.42983,-71.51146,Stow,MA,Massachusetts,TRUE,,7109,158.3,25017,Middlesex,"{""25017"": 100}",Middlesex,25017,FALSE,FALSE,America/New_York
1776,42.38456,-71.42316,Sudbury,MA,Massachusetts,TRUE,,19067,301.6,25017,Middlesex,"{""25017"": 100}",Middlesex,25017,FALSE,FALSE,America/New_York
1778,42.3583,-71.35895,Wayland,MA,Massachusetts,TRUE,,13915,357.4,25017,Middlesex,"{""25017"": 100}",Middlesex,25017,FALSE,FALSE,America/New_York
1801,42.48694,-71.15415,Woburn,MA,Massachusetts,TRUE,,41205,1252.2,25017,Middlesex,"{""25017"": 100}",Middlesex,25017,FALSE,FALSE,America/New_York
1803,42.5028,-71.20147,Burlington,MA,Massachusetts,TRUE,,26068,893,25017,Middlesex,"{""25017"": 100}",Middlesex,25017,FALSE,FALSE,America/New_York
1810,42.64669,-71.16517,Andover,MA,Massachusetts,TRUE,,35608,450.4,25009,Essex,"{""25009"": 100}",Essex,25009,FALSE,FALSE,America/New_York
1821,42.54999,-71.25206,Billerica,MA,Massachusetts,TRUE,,30203,702.8,25017,Middlesex,"{""25017"": 100}",Middlesex,25017,FALSE,FALSE,America/New_York
1824,42.59156,-71.35553,Chelmsford,MA,Massachusetts,TRUE,,26628,569.2,25017,Middlesex,"{""25017"": 100}",Middlesex,25017,FALSE,FALSE,America/New_York
1826,42.68323,-71.30063,Dracut,MA,Massachusetts,TRUE,,32373,601.4,25017,Middlesex,"{""25017"": 99.44, ""25009"": 0.56}",Middlesex|Essex,25017|25009,FALSE,FALSE,America/New_York
1827,42.67643,-71.50052,Dunstable,MA,Massachusetts,TRUE,,3375,79.2,25017,Middlesex,"{""25017"": 100}",Middlesex,25017,FALSE,FALSE,America/New_York
1830,42.7959,-71.05323,Haverhill,MA,Massachusetts,TRUE,,26685,742.9,25009,Essex,"{""25009"": 100}",Essex,25009,FALSE,FALSE,America/New_York
1832,42.79099,-71.13133,Haverhill,MA,Massachusetts,TRUE,,26065,886.1,25009,Essex,"{""25009"": 100}",Essex,25009,FALSE,FALSE,America/New_York
1833,42.72409,-70.9821,Georgetown,MA,Massachusetts,TRUE,,8380,252.3,25009,Essex,"{""25009"": 100}",Essex,25009,FALSE,FALSE,America/New_York
1834,42.75198,-71.01486,Groveland,MA,Massachusetts,TRUE,,6747,293.4,25009,Essex,"{""25009"": 100}",Essex,25009,FALSE,FALSE,America/New_York
1835,42.75292,-71.08602,Haverhill,MA,Massachusetts,TRUE,,14637,723.5,25009,Essex,"{""25009"": 100}",Essex,25009,FALSE,FALSE,America/New_York
1840,42.70695,-71.16014,Lawrence,MA,Massachusetts,TRUE,,7092,5363.9,25009,Essex,"{""25009"": 100}",Essex,25009,FALSE,FALSE,America/New_York
1841,42.71077,-71.16494,Lawrence,MA,Massachusetts,TRUE,,52761,6693.4,25009,Essex,"{""25009"": 100}",Essex,25009,FALSE,FALSE,America/New_York
1843,42.68985,-71.16095,Lawrence,MA,Massachusetts,TRUE,,28444,3254.6,25009,Essex,"{""25009"": 100}",Essex,25009,FALSE,FALSE,America/New_York
1844,42.73426,-71.18858,Methuen,MA,Massachusetts,TRUE,,53015,926.3,25009,Essex,"{""25009"": 100}",Essex,25009,FALSE,FALSE,America/New_York
1845,42.67132,-71.08669,North Andover,MA,Massachusetts,TRUE,,31881,466.1,25009,Essex,"{""25009"": 100}",Essex,25009,FALSE,FALSE,America/New_York
1850,42.65569,-71.30292,Lowell,MA,Massachusetts,TRUE,,16983,4818.3,25017,Middlesex,"{""25017"": 100}",Middlesex,25017,FALSE,FALSE,America/New_York
1851,42.62915,-71.33674,Lowell,MA,Massachusetts,TRUE,,32308,3863.5,25017,Middlesex,"{""25017"": 100}",Middlesex,25017,FALSE,FALSE,America/New_York
1852,42.63231,-71.29538,Lowell,MA,Massachusetts,TRUE,,36700,2849.5,25017,Middlesex,"{""25017"": 100}",Middlesex,25017,FALSE,FALSE,America/New_York
1854,42.64939,-71.34827,Lowell,MA,Massachusetts,TRUE,,28808,2808.6,25017,Middlesex,"{""25017"": 100}",Middlesex,25017,FALSE,FALSE,America/New_York
1860,42.83858,-71.01194,Merrimac,MA,Massachusetts,TRUE,,6707,304.7,25009,Essex,"{""25009"": 100}",Essex,25009,FALSE,FALSE,America/New_York
1862,42.57427,-71.29437,North Billerica,MA,Massachusetts,TRUE,,11703,496.2,25017,Middlesex,"{""25017"": 100}",Middlesex,25017,FALSE,FALSE,America/New_York
1863,42.63274,-71.39132,North Chelmsford,MA,Massachusetts,TRUE,,9592,831.3,25017,Middlesex,"{""25017"": 100}",Middlesex,25017,FALSE,FALSE,America/New_York
1864,42.58156,-71.08759,North Reading,MA,Massachusetts,TRUE,,15634,458.8,25017,Middlesex,"{""25017"": 100}",Middlesex,25017,FALSE,FALSE,America/New_York
1867,42.53505,-71.1055,Reading,MA,Massachusetts,TRUE,,25474,987,25017,Middlesex,"{""25017"": 100}",Middlesex,25017,FALSE,FALSE,America/New_York
1876,42.61206,-71.22733,Tewksbury,MA,Massachusetts,TRUE,,30962,573.9,25017,Middlesex,"{""25017"": 99.19, ""25009"": 0.81}",Middlesex|Essex,25017|25009,FALSE,FALSE,America/New_York
1879,42.66626,-71.42911,Tyngsboro,MA,Massachusetts,TRUE,,12435,286.4,25017,Middlesex,"{""25017"": 100}",Middlesex,25017,FALSE,FALSE,America/New_York
1880,42.50348,-71.06559,Wakefield,MA,Massachusetts,TRUE,,27258,1425,25017,Middlesex,"{""25017"": 100}",Middlesex,25017,FALSE,FALSE,America/New_York
1886,42.58642,-71.44008,Westford,MA,Massachusetts,TRUE,,24584,313.9,25017,Middlesex,"{""25017"": 100}",Middlesex,25017,FALSE,FALSE,America/New_York
1887,42.56091,-71.16541,Wilmington,MA,Massachusetts,TRUE,,23195,527.6,25017,Middlesex,"{""25017"": 100}",Middlesex,25017,FALSE,FALSE,America/New_York
1890,42.45177,-71.14628,Winchester,MA,Massachusetts,TRUE,,22862,1463.4,25017,Middlesex,"{""25017"": 100}",Middlesex,25017,FALSE,FALSE,America/New_York
1901,42.46125,-70.94639,Lynn,MA,Massachusetts,TRUE,,1934,2752.9,25009,Essex,"{""25009"": 100}",Essex,25009,FALSE,FALSE,America/New_York
1902,42.4712,-70.93983,Lynn,MA,Massachusetts,TRUE,,51680,8420.1,25009,Essex,"{""25009"": 100}",Essex,25009,FALSE,FALSE,America/New_York
1904,42.49151,-70.97166,Lynn,MA,Massachusetts,TRUE,,20103,1828.1,25009,Essex,"{""25009"": 100}",Essex,25009,FALSE,FALSE,America/New_York
1905,42.46355,-70.9733,Lynn,MA,Massachusetts,TRUE,,27188,3441.7,25009,Essex,"{""25009"": 100}",Essex,25009,FALSE,FALSE,America/New_York
1906,42.46922,-71.01299,Saugus,MA,Massachusetts,TRUE,,28599,953.7,25009,Essex,"{""25009"": 100}",Essex,25009,FALSE,FALSE,America/New_York
1907,42.47572,-70.90684,Swampscott,MA,Massachusetts,TRUE,,15279,1951.5,25009,Essex,"{""25009"": 100}",Essex,25009,FALSE,FALSE,America/New_York
1908,42.42856,-70.92614,Nahant,MA,Massachusetts,TRUE,,3328,1194.4,25009,Essex,"{""25009"": 100}",Essex,25009,FALSE,FALSE,America/New_York
1913,42.85297,-70.94459,Amesbury,MA,Massachusetts,TRUE,,17277,542.7,25009,Essex,"{""25009"": 100}",Essex,25009,FALSE,FALSE,America/New_York
1915,42.56841,-70.8647,Beverly,MA,Massachusetts,TRUE,,41656,1131.9,25009,Essex,"{""25009"": 100}",Essex,25009,FALSE,FALSE,America/New_York
1921,42.6815,-71.01887,Boxford,MA,Massachusetts,TRUE,,8229,134.7,25009,Essex,"{""25009"": 100}",Essex,25009,FALSE,FALSE,America/New_York
1922,42.75862,-70.91758,Byfield,MA,Massachusetts,TRUE,,3791,161.4,25009,Essex,"{""25009"": 100}",Essex,25009,FALSE,FALSE,America/New_York
1923,42.57398,-70.94923,Danvers,MA,Massachusetts,TRUE,,27778,812.2,25009,Essex,"{""25009"": 100}",Essex,25009,FALSE,FALSE,America/New_York
1929,42.63478,-70.77684,Essex,MA,Massachusetts,TRUE,,3605,99.9,25009,Essex,"{""25009"": 100}",Essex,25009,FALSE,FALSE,America/New_York
1930,42.62605,-70.68966,Gloucester,MA,Massachusetts,TRUE,,29862,440.1,25009,Essex,"{""25009"": 100}",Essex,25009,FALSE,FALSE,America/New_York
1937,42.58579,-70.98406,Hathorne,MA,Massachusetts,TRUE,,146,771.6,25009,Essex,"{""25009"": 100}",Essex,25009,FALSE,FALSE,America/New_York
1938,42.68568,-70.83989,Ipswich,MA,Massachusetts,TRUE,,13820,166.2,25009,Essex,"{""25009"": 100}",Essex,25009,FALSE,FALSE,America/New_York
1940,42.53523,-71.03695,Lynnfield,MA,Massachusetts,TRUE,,13183,505.1,25009,Essex,"{""25009"": 99.87, ""25017"": 0.13}",Essex|Middlesex,25009|25017,FALSE,FALSE,America/New_York
1944,42.58154,-70.76825,Manchester,MA,Massachusetts,TRUE,,5368,224.6,25009,Essex,"{""25009"": 100}",Essex,25009,FALSE,FALSE,America/New_York
1945,42.49924,-70.86348,Marblehead,MA,Massachusetts,TRUE,,20390,1777.1,25009,Essex,"{""25009"": 100}",Essex,25009,FALSE,FALSE,America/New_York
1949,42.6043,-71.01641,Middleton,MA,Massachusetts,TRUE,,9727,279.3,25009,Essex,"{""25009"": 100}",Essex,25009,FALSE,FALSE,America/New_York
1950,42.81237,-70.88785,Newburyport,MA,Massachusetts,TRUE,,18444,852.8,25009,Essex,"{""25009"": 100}",Essex,25009,FALSE,FALSE,America/New_York
1951,42.77742,-70.85022,Newbury,MA,Massachusetts,TRUE,,2938,79.3,25009,Essex,"{""25009"": 100}",Essex,25009,FALSE,FALSE,America/New_York
1952,42.84655,-70.86163,Salisbury,MA,Massachusetts,TRUE,,9217,231.5,25009,Essex,"{""25009"": 100}",Essex,25009,FALSE,FALSE,America/New_York
1960,42.53374,-70.97222,Peabody,MA,Massachusetts,TRUE,,53961,1300.9,25009,Essex,"{""25009"": 100}",Essex,25009,FALSE,FALSE,America/New_York
1965,42.56294,-70.82996,Prides Crossing,MA,Massachusetts,TRUE,,752,330.2,25009,Essex,"{""25009"": 100}",Essex,25009,FALSE,FALSE,America/New_York
1966,42.65432,-70.62227,Rockport,MA,Massachusetts,TRUE,,6977,385.5,25009,Essex,"{""25009"": 100}",Essex,25009,FALSE,FALSE,America/New_York
1969,42.72235,-70.88832,Rowley,MA,Massachusetts,TRUE,,6214,131.8,25009,Essex,"{""25009"": 100}",Essex,25009,FALSE,FALSE,America/New_York
1970,42.51298,-70.90266,Salem,MA,Massachusetts,TRUE,,44115,2066.5,25009,Essex,"{""25009"": 100}",Essex,25009,FALSE,FALSE,America/New_York
1982,42.62669,-70.85789,South Hamilton,MA,Massachusetts,TRUE,,7646,207.9,25009,Essex,"{""25009"": 100}",Essex,25009,FALSE,FALSE,America/New_York
1983,42.63728,-70.94251,Topsfield,MA,Massachusetts,TRUE,,6535,212.1,25009,Essex,"{""25009"": 100}",Essex,25009,FALSE,FALSE,America/New_York
1984,42.60078,-70.8826,Wenham,MA,Massachusetts,TRUE,,4930,248.5,25009,Essex,"{""25009"": 100}",Essex,25009,FALSE,FALSE,America/New_York
1985,42.7939,-70.96906,West Newbury,MA,Massachusetts,TRUE,,4536,130.2,25009,Essex,"{""25009"": 100}",Essex,25009,FALSE,FALSE,America/New_York
2019,42.0777,-71.47407,Bellingham,MA,Massachusetts,TRUE,,17160,361.2,25021,Norfolk,"{""25021"": 100}",Norfolk,25021,FALSE,FALSE,America/New_York
2021,42.17504,-71.12645,Canton,MA,Massachusetts,TRUE,,24459,503.8,25021,Norfolk,"{""25021"": 100}",Norfolk,25021,FALSE,FALSE,America/New_York
2025,42.23603,-70.81906,Cohasset,MA,Massachusetts,TRUE,,8358,330.2,25021,Norfolk,"{""25021"": 100}",Norfolk,25021,FALSE,FALSE,America/New_York
2026,42.24665,-71.1777,Dedham,MA,Massachusetts,TRUE,,25109,943.9,25021,Norfolk,"{""25021"": 100}",Norfolk,25021,FALSE,FALSE,America/New_York
2030,42.2366,-71.28421,Dover,MA,Massachusetts,TRUE,,5893,150.7,25021,Norfolk,"{""25021"": 100}",Norfolk,25021,FALSE,FALSE,America/New_York
2032,42.15489,-71.2155,East Walpole,MA,Massachusetts,TRUE,,4914,811.4,25021,Norfolk,"{""25021"": 100}",Norfolk,25021,FALSE,FALSE,America/New_York
2035,42.06266,-71.24613,Foxboro,MA,Massachusetts,TRUE,,18516,360,25021,Norfolk,"{""25021"": 100}",Norfolk,25021,FALSE,FALSE,America/New_York
2038,42.08622,-71.41126,Franklin,MA,Massachusetts,TRUE,,33067,479.3,25021,Norfolk,"{""25021"": 100}",Norfolk,25021,FALSE,FALSE,America/New_York
2043,42.21678,-70.88494,Hingham,MA,Massachusetts,TRUE,,24185,421,25023,Plymouth,"{""25023"": 100}",Plymouth,25023,FALSE,FALSE,America/New_York
2045,42.28437,-70.88266,Hull,MA,Massachusetts,TRUE,,10098,1458.3,25023,Plymouth,"{""25023"": 100}",Plymouth,25023,FALSE,FALSE,America/New_York
2047,42.14582,-70.69603,Humarock,MA,Massachusetts,TRUE,,142,95.1,25023,Plymouth,"{""25023"": 100}",Plymouth,25023,FALSE,FALSE,America/New_York
2048,42.01626,-71.21868,Mansfield,MA,Massachusetts,TRUE,,23855,458.1,25005,Bristol,"{""25005"": 100}",Bristol,25005,FALSE,FALSE,America/New_York
2050,42.11443,-70.71487,Marshfield,MA,Massachusetts,TRUE,,25903,347.7,25023,Plymouth,"{""25023"": 100}",Plymouth,25023,FALSE,FALSE,America/New_York
2052,42.1848,-71.30501,Medfield,MA,Massachusetts,TRUE,,12923,346.3,25021,Norfolk,"{""25021"": 100}",Norfolk,25021,FALSE,FALSE,America/New_York
2053,42.15352,-71.42906,Medway,MA,Massachusetts,TRUE,,13251,443.5,25021,Norfolk,"{""25021"": 100}",Norfolk,25021,FALSE,FALSE,America/New_York
2054,42.1693,-71.36261,Millis,MA,Massachusetts,TRUE,,8699,279.1,25021,Norfolk,"{""25021"": 100}",Norfolk,25021,FALSE,FALSE,America/New_York
2056,42.11632,-71.32952,Norfolk,MA,Massachusetts,TRUE,,11556,299.5,25021,Norfolk,"{""25021"": 100}",Norfolk,25021,FALSE,FALSE,America/New_York
2061,42.16075,-70.81772,Norwell,MA,Massachusetts,TRUE,,11309,208.6,25023,Plymouth,"{""25023"": 100}",Plymouth,25023,FALSE,FALSE,America/New_York
2062,42.18563,-71.19464,Norwood,MA,Massachusetts,TRUE,,31380,1148.5,25021,Norfolk,"{""25021"": 100}",Norfolk,25021,FALSE,FALSE,America/New_York
2066,42.20129,-70.76155,Scituate,MA,Massachusetts,TRUE,,18895,442.2,25023,Plymouth,"{""25023"": 100}",Plymouth,25023,FALSE,FALSE,America/New_York
2067,42.10778,-71.18183,Sharon,MA,Massachusetts,TRUE,,18478,314.5,25021,Norfolk,"{""25021"": 100}",Norfolk,25021,FALSE,FALSE,America/New_York
2071,42.10392,-71.27002,South Walpole,MA,Massachusetts,TRUE,,1677,673.1,25021,Norfolk,"{""25021"": 100}",Norfolk,25021,FALSE,FALSE,America/New_York
2072,42.1192,-71.10189,Stoughton,MA,Massachusetts,TRUE,,29074,697.8,25021,Norfolk,"{""25021"": 100}",Norfolk,25021,FALSE,FALSE,America/New_York
2081,42.14689,-71.25916,Walpole,MA,Massachusetts,TRUE,,19703,429.2,25021,Norfolk,"{""25021"": 100}",Norfolk,25021,FALSE,FALSE,America/New_York
2090,42.22024,-71.21057,Westwood,MA,Massachusetts,TRUE,,16213,574.8,25021,Norfolk,"{""25021"": 100}",Norfolk,25021,FALSE,FALSE,America/New_York
2093,42.05129,-71.35522,Wrentham,MA,Massachusetts,TRUE,,12305,218.9,25021,Norfolk,"{""25021"": 100}",Norfolk,25021,FALSE,FALSE,America/New_York
2108,42.35657,-71.06516,Boston,MA,Massachusetts,TRUE,,4178,5890.1,25025,Suffolk,"{""25025"": 100}",Suffolk,25025,FALSE,FALSE,America/New_York
2109,42.36498,-71.05277,Boston,MA,Massachusetts,TRUE,,3714,8456.3,25025,Suffolk,"{""25025"": 100}",Suffolk,25025,FALSE,FALSE,America/New_York
2110,42.35797,-71.05189,Boston,MA,Massachusetts,TRUE,,2178,4701,25025,Suffolk,"{""25025"": 100}",Suffolk,25025,FALSE,FALSE,America/New_York
2111,42.35067,-71.06054,Boston,MA,Massachusetts,TRUE,,8067,15890.8,25025,Suffolk,"{""25025"": 100}",Suffolk,25025,FALSE,FALSE,America/New_York
2113,42.36526,-71.05524,Boston,MA,Massachusetts,TRUE,,6522,25874.3,25025,Suffolk,"{""25025"": 100}",Suffolk,25025,FALSE,FALSE,America/New_York
2114,42.36337,-71.06686,Boston,MA,Massachusetts,TRUE,,13853,12062.5,25025,Suffolk,"{""25025"": 100}",Suffolk,25025,FALSE,FALSE,America/New_York
2115,42.34046,-71.09481,Boston,MA,Massachusetts,TRUE,,28621,15548.9,25025,Suffolk,"{""25025"": 100}",Suffolk,25025,FALSE,FALSE,America/New_York
2116,42.35105,-71.07638,Boston,MA,Massachusetts,TRUE,,22040,13104,25025,Suffolk,"{""25025"": 100}",Suffolk,25025,FALSE,FALSE,America/New_York
2118,42.33806,-71.07057,Boston,MA,Massachusetts,TRUE,,28522,10124.7,25025,Suffolk,"{""25025"": 100}",Suffolk,25025,FALSE,FALSE,America/New_York
2119,42.32405,-71.08522,Roxbury,MA,Massachusetts,TRUE,,26851,6418.6,25025,Suffolk,"{""25025"": 100}",Suffolk,25025,FALSE,FALSE,America/New_York
2120,42.33212,-71.09654,Roxbury Crossing,MA,Massachusetts,TRUE,,15248,9510.7,25025,Suffolk,"{""25025"": 100}",Suffolk,25025,FALSE,FALSE,America/New_York
2121,42.3057,-71.08693,Dorchester,MA,Massachusetts,TRUE,,28298,5794.2,25025,Suffolk,"{""25025"": 100}",Suffolk,25025,FALSE,FALSE,America/New_York
2122,42.29427,-71.05185,Dorchester,MA,Massachusetts,TRUE,,23471,5339,25025,Suffolk,"{""25025"": 100}",Suffolk,25025,FALSE,FALSE,America/New_York
2124,42.28583,-71.07114,Dorchester Center,MA,Massachusetts,TRUE,,55897,7272,25025,Suffolk,"{""25025"": 100}",Suffolk,25025,FALSE,FALSE,America/New_York
2125,42.31578,-71.0562,Dorchester,MA,Massachusetts,TRUE,,33069,5889.5,25025,Suffolk,"{""25025"": 100}",Suffolk,25025,FALSE,FALSE,America/New_York
2126,42.27588,-71.0918,Mattapan,MA,Massachusetts,TRUE,,25313,5345.6,25025,Suffolk,"{""25025"": 99.47, ""25021"": 0.53}",Suffolk|Norfolk,25025|25021,FALSE,FALSE,America/New_York
2127,42.33455,-71.03875,South Boston,MA,Massachusetts,TRUE,,36646,6876.2,25025,Suffolk,"{""25025"": 100}",Suffolk,25025,FALSE,FALSE,America/New_York
2128,42.37324,-71.01616,East Boston,MA,Massachusetts,TRUE,,44124,3390.5,25025,Suffolk,"{""25025"": 100}",Suffolk,25025,FALSE,FALSE,America/New_York
2129,42.37975,-71.06167,Charlestown,MA,Massachusetts,TRUE,,19994,5702.9,25025,Suffolk,"{""25025"": 100}",Suffolk,25025,FALSE,FALSE,America/New_York
2130,42.30823,-71.11515,Jamaica Plain,MA,Massachusetts,TRUE,,41109,4483.2,25025,Suffolk,"{""25025"": 100}",Suffolk,25025,FALSE,FALSE,America/New_York
2131,42.28392,-71.12468,Roslindale,MA,Massachusetts,TRUE,,31564,4371.8,25025,Suffolk,"{""25025"": 100}",Suffolk,25025,FALSE,FALSE,America/New_York
2132,42.27931,-71.16072,West Roxbury,MA,Massachusetts,TRUE,,27069,2148.7,25025,Suffolk,"{""25025"": 99.84, ""25021"": 0.16}",Suffolk|Norfolk,25025|25021,FALSE,FALSE,America/New_York
2133,42.35838,-71.06383,Boston,MA,Massachusetts,TRUE,,80,2377.1,25025,Suffolk,"{""25025"": 100}",Suffolk,25025,FALSE,FALSE,America/New_York
2134,42.35855,-71.12931,Allston,MA,Massachusetts,TRUE,,17637,5516.9,25025,Suffolk,"{""25025"": 99.6, ""25017"": 0.4}",Suffolk|Middlesex,25025|25017,FALSE,FALSE,America/New_York
2135,42.34989,-71.15417,Brighton,MA,Massachusetts,TRUE,,43683,6487.7,25025,Suffolk,"{""25025"": 100}",Suffolk,25025,FALSE,FALSE,America/New_York
2136,42.25505,-71.12662,Hyde Park,MA,Massachusetts,TRUE,,38071,3196.6,25025,Suffolk,"{""25025"": 99.9, ""25021"": 0.1}",Suffolk|Norfolk,25025|25021,FALSE,FALSE,America/New_York
2138,42.37997,-71.13446,Cambridge,MA,Massachusetts,TRUE,,38077,5369,25017,Middlesex,"{""25017"": 100}",Middlesex,25017,FALSE,FALSE,America/New_York
2139,42.36224,-71.10253,Cambridge,MA,Massachusetts,TRUE,,39609,9854.9,25017,Middlesex,"{""25017"": 100}",Middlesex,25017,FALSE,FALSE,America/New_York
2140,42.39332,-71.13342,Cambridge,MA,Massachusetts,TRUE,,21361,7119.9,25017,Middlesex,"{""25017"": 100}",Middlesex,25017,FALSE,FALSE,America/New_York
2141,42.37041,-71.08218,Cambridge,MA,Massachusetts,TRUE,,14677,9308.6,25017,Middlesex,"{""25017"": 100}",Middlesex,25017,FALSE,FALSE,America/New_York
2142,42.36295,-71.08189,Cambridge,MA,Massachusetts,TRUE,,4349,5352.7,25017,Middlesex,"{""25017"": 99.84, ""25025"": 0.16}",Middlesex|Suffolk,25017|25025,FALSE,FALSE,America/New_York
2143,42.38142,-71.09677,Somerville,MA,Massachusetts,TRUE,,25161,6289.6,25017,Middlesex,"{""25017"": 100}",Middlesex,25017,FALSE,FALSE,America/New_York
2144,42.40088,-71.122,Somerville,MA,Massachusetts,TRUE,,25009,8843.5,25017,Middlesex,"{""25017"": 100}",Middlesex,25017,FALSE,FALSE,America/New_York
2145,42.39206,-71.0895,Somerville,MA,Massachusetts,TRUE,,27929,7754,25017,Middlesex,"{""25017"": 100}",Middlesex,25017,FALSE,FALSE,America/New_York
2148,42.43048,-71.05762,Malden,MA,Massachusetts,TRUE,,65509,5012.5,25017,Middlesex,"{""25017"": 100}",Middlesex,25017,FALSE,FALSE,America/New_York
2149,42.40643,-71.05446,Everett,MA,Massachusetts,TRUE,,49236,5560,25017,Middlesex,"{""25017"": 99.86, ""25025"": 0.14}",Middlesex|Suffolk,25017|25025,FALSE,FALSE,America/New_York
2150,42.39587,-71.03251,Chelsea,MA,Massachusetts,TRUE,,39444,6878.1,25025,Suffolk,"{""25025"": 99.81, ""25017"": 0.19}",Suffolk|Middlesex,25025|25017,FALSE,FALSE,America/New_York
2151,42.41887,-71.004,Revere,MA,Massachusetts,TRUE,,59949,4057,25025,Suffolk,"{""25025"": 100}",Suffolk,25025,FALSE,FALSE,America/New_York
2152,42.37724,-70.98115,Winthrop,MA,Massachusetts,TRUE,,18807,4381.6,25025,Suffolk,"{""25025"": 100}",Suffolk,25025,FALSE,FALSE,America/New_York
2155,42.42324,-71.10878,Medford,MA,Massachusetts,TRUE,,61276,2888.8,25017,Middlesex,"{""25017"": 100}",Middlesex,25017,FALSE,FALSE,America/New_York
2163,42.36717,-71.12509,Boston,MA,Massachusetts,TRUE,,1852,3897.5,25025,Suffolk,"{""25025"": 100}",Suffolk,25025,FALSE,FALSE,America/New_York
2169,42.23971,-71.01802,Quincy,MA,Massachusetts,TRUE,,60928,1944.9,25021,Norfolk,"{""25021"": 100}",Norfolk,25021,FALSE,FALSE,America/New_York
2170,42.26644,-71.01621,Quincy,MA,Massachusetts,TRUE,,19685,3645.4,25021,Norfolk,"{""25021"": 100}",Norfolk,25021,FALSE,FALSE,America/New_York
2171,42.28709,-71.02604,Quincy,MA,Massachusetts,TRUE,,20513,3229.2,25021,Norfolk,"{""25021"": 100}",Norfolk,25021,FALSE,FALSE,America/New_York
2176,42.45561,-71.05901,Melrose,MA,Massachusetts,TRUE,,29488,2431.1,25017,Middlesex,"{""25017"": 100}",Middlesex,25017,FALSE,FALSE,America/New_York
2180,42.47396,-71.09705,Stoneham,MA,Massachusetts,TRUE,,22986,1484.6,25017,Middlesex,"{""25017"": 100}",Middlesex,25017,FALSE,FALSE,America/New_York
2184,42.20386,-71.0022,Braintree,MA,Massachusetts,TRUE,,38762,1087.4,25021,Norfolk,"{""25021"": 100}",Norfolk,25021,FALSE,FALSE,America/New_York
2186,42.23854,-71.08464,Milton,MA,Massachusetts,TRUE,,28716,809.5,25021,Norfolk,"{""25021"": 100}",Norfolk,25021,FALSE,FALSE,America/New_York
2188,42.20724,-70.95764,Weymouth,MA,Massachusetts,TRUE,,15396,1539.3,25021,Norfolk,"{""25021"": 100}",Norfolk,25021,FALSE,FALSE,America/New_York
2189,42.2111,-70.93135,East Weymouth,MA,Massachusetts,TRUE,,15231,1466.5,25021,Norfolk,"{""25021"": 100}",Norfolk,25021,FALSE,FALSE,America/New_York
2190,42.16625,-70.95253,South Weymouth,MA,Massachusetts,TRUE,,19029,1050.2,25021,Norfolk,"{""25021"": 100}",Norfolk,25021,FALSE,FALSE,America/New_York
2191,42.24434,-70.94378,North Weymouth,MA,Massachusetts,TRUE,,8130,1750.4,25021,Norfolk,"{""25021"": 100}",Norfolk,25021,FALSE,FALSE,America/New_York
2199,42.34748,-71.08199,Boston,MA,Massachusetts,TRUE,,1253,8447.9,25025,Suffolk,"{""25025"": 100}",Suffolk,25025,FALSE,FALSE,America/New_York
2203,42.36144,-71.05945,Boston,MA,Massachusetts,TRUE,,0,0,25025,Suffolk,"{""25025"": 100}",Suffolk,25025,FALSE,FALSE,America/New_York
2205,42.34935,-71.05564,Boston,MA,Massachusetts,TRUE,,0,0,25025,Suffolk,"{""25025"": 100}",Suffolk,25025,FALSE,FALSE,America/New_York
2210,42.34815,-71.03942,Boston,MA,Massachusetts,TRUE,,6554,2742.4,25025,Suffolk,"{""25025"": 100}",Suffolk,25025,FALSE,FALSE,America/New_York
2215,42.34741,-71.10276,Boston,MA,Massachusetts,TRUE,,24054,10502.4,25025,Suffolk,"{""25025"": 95.72, ""25021"": 4.28}",Suffolk|Norfolk,25025|25021,FALSE,FALSE,America/New_York
2301,42.07791,-71.04223,Brockton,MA,Massachusetts,TRUE,,68608,2128.2,25023,Plymouth,"{""25023"": 100}",Plymouth,25023,FALSE,FALSE,America/New_York
2302,42.08792,-70.99864,Brockton,MA,Massachusetts,TRUE,,36472,1585.5,25023,Plymouth,"{""25023"": 100}",Plymouth,25023,FALSE,FALSE,America/New_York
2322,42.12666,-71.04922,Avon,MA,Massachusetts,TRUE,,4753,427.6,25021,Norfolk,"{""25021"": 100}",Norfolk,25021,FALSE,FALSE,America/New_York
2324,41.97272,-70.97498,Bridgewater,MA,Massachusetts,TRUE,,26022,372.3,25023,Plymouth,"{""25023"": 100}",Plymouth,25023,FALSE,FALSE,America/New_York
2325,41.98875,-70.96449,Bridgewater,MA,Massachusetts,TRUE,,2647,3353.4,25023,Plymouth,"{""25023"": 100}",Plymouth,25023,FALSE,FALSE,America/New_York
2330,41.87388,-70.7563,Carver,MA,Massachusetts,TRUE,,11645,120.5,25023,Plymouth,"{""25023"": 100}",Plymouth,25023,FALSE,FALSE,America/New_York
2332,42.04651,-70.71388,Duxbury,MA,Massachusetts,TRUE,,16110,262.4,25023,Plymouth,"{""25023"": 100}",Plymouth,25023,FALSE,FALSE,America/New_York
2333,42.03521,-70.94235,East Bridgewater,MA,Massachusetts,TRUE,,14420,323.8,25023,Plymouth,"{""25023"": 100}",Plymouth,25023,FALSE,FALSE,America/New_York
2338,41.99138,-70.86326,Halifax,MA,Massachusetts,TRUE,,7734,186.9,25023,Plymouth,"{""25023"": 100}",Plymouth,25023,FALSE,FALSE,America/New_York
2339,42.12241,-70.85665,Hanover,MA,Massachusetts,TRUE,,14800,367.8,25023,Plymouth,"{""25023"": 100}",Plymouth,25023,FALSE,FALSE,America/New_York
2341,42.05604,-70.87251,Hanson,MA,Massachusetts,TRUE,,10466,271.1,25023,Plymouth,"{""25023"": 100}",Plymouth,25023,FALSE,FALSE,America/New_York
2343,42.14733,-71.00484,Holbrook,MA,Massachusetts,TRUE,,11267,620.5,25021,Norfolk,"{""25021"": 100}",Norfolk,25021,FALSE,FALSE,America/New_York
2346,41.88034,-70.87446,Middleboro,MA,Massachusetts,TRUE,,24360,136.2,25023,Plymouth,"{""25023"": 100}",Plymouth,25023,FALSE,FALSE,America/New_York
2347,41.83101,-70.9594,Lakeville,MA,Massachusetts,TRUE,,11732,153,25023,Plymouth,"{""25023"": 100}",Plymouth,25023,FALSE,FALSE,America/New_York
2350,42.02043,-70.84562,Monponsett,MA,Massachusetts,TRUE,,149,505,25023,Plymouth,"{""25023"": 100}",Plymouth,25023,FALSE,FALSE,America/New_York
2351,42.11805,-70.95905,Abington,MA,Massachusetts,TRUE,,17008,659.1,25023,Plymouth,"{""25023"": 100}",Plymouth,25023,FALSE,FALSE,America/New_York
2356,42.05519,-71.12071,North Easton,MA,Massachusetts,TRUE,,12547,356,25005,Bristol,"{""25005"": 100}",Bristol,25005,FALSE,FALSE,America/New_York
2357,42.06224,-71.07751,North Easton,MA,Massachusetts,TRUE,,1410,1402.3,25005,Bristol,"{""25005"": 100}",Bristol,25005,FALSE,FALSE,America/New_York
2359,42.06547,-70.8014,Pembroke,MA,Massachusetts,TRUE,,18335,324.9,25023,Plymouth,"{""25023"": 100}",Plymouth,25023,FALSE,FALSE,America/New_York
2360,41.87817,-70.63089,Plymouth,MA,Massachusetts,TRUE,,62405,250,25023,Plymouth,"{""25023"": 100}",Plymouth,25023,FALSE,FALSE,America/New_York
2364,41.98616,-70.74823,Kingston,MA,Massachusetts,TRUE,,13782,285.4,25023,Plymouth,"{""25023"": 100}",Plymouth,25023,FALSE,FALSE,America/New_York
2366,41.84868,-70.6613,South Carver,MA,Massachusetts,TRUE,,251,2164.5,25023,Plymouth,"{""25023"": 100}",Plymouth,25023,FALSE,FALSE,America/New_York
2367,41.96345,-70.80975,Plympton,MA,Massachusetts,TRUE,,2934,77.2,25023,Plymouth,"{""25023"": 100}",Plymouth,25023,FALSE,FALSE,America/New_York
2368,42.17506,-71.05011,Randolph,MA,Massachusetts,TRUE,,34736,1438.5,25021,Norfolk,"{""25021"": 100}",Norfolk,25021,FALSE,FALSE,America/New_York
2370,42.1295,-70.91002,Rockland,MA,Massachusetts,TRUE,,17709,681.8,25023,Plymouth,"{""25023"": 100}",Plymouth,25023,FALSE,FALSE,America/New_York
2375,42.01954,-71.10381,South Easton,MA,Massachusetts,TRUE,,11205,313.9,25005,Bristol,"{""25005"": 100}",Bristol,25005,FALSE,FALSE,America/New_York
2379,42.02139,-71.0267,West Bridgewater,MA,Massachusetts,TRUE,,7682,193.6,25023,Plymouth,"{""25023"": 100}",Plymouth,25023,FALSE,FALSE,America/New_York
2382,42.08,-70.93993,Whitman,MA,Massachusetts,TRUE,,15215,847,25023,Plymouth,"{""25023"": 100}",Plymouth,25023,FALSE,FALSE,America/New_York
2420,42.45821,-71.21762,Lexington,MA,Massachusetts,TRUE,,16287,893.5,25017,Middlesex,"{""25017"": 100}",Middlesex,25017,FALSE,FALSE,America/New_York
2421,42.438,-71.23922,Lexington,MA,Massachusetts,TRUE,,17798,718.1,25017,Middlesex,"{""25017"": 100}",Middlesex,25017,FALSE,FALSE,America/New_York
2445,42.32581,-71.13319,Brookline,MA,Massachusetts,TRUE,,22568,3337.1,25021,Norfolk,"{""25021"": 97.46, ""25025"": 2.54}",Norfolk|Suffolk,25021|25025,FALSE,FALSE,America/New_York
2446,42.3435,-71.12179,Brookline,MA,Massachusetts,TRUE,,31109,9352.5,25021,Norfolk,"{""25021"": 99.75, ""25025"": 0.25}",Norfolk|Suffolk,25021|25025,FALSE,FALSE,America/New_York
2451,42.39859,-71.2573,Waltham,MA,Massachusetts,TRUE,,18153,1317.5,25017,Middlesex,"{""25017"": 100}",Middlesex,25017,FALSE,FALSE,America/New_York
2452,42.39365,-71.2202,Waltham,MA,Massachusetts,TRUE,,16173,1637.5,25017,Middlesex,"{""25017"": 100}",Middlesex,25017,FALSE,FALSE,America/New_York
2453,42.36918,-71.24101,Waltham,MA,Massachusetts,TRUE,,30314,3258.5,25017,Middlesex,"{""25017"": 100}",Middlesex,25017,FALSE,FALSE,America/New_York
2457,42.29777,-71.26887,Babson Park,MA,Massachusetts,TRUE,,1886,3595.8,25021,Norfolk,"{""25021"": 100}",Norfolk,25021,FALSE,FALSE,America/New_York
2458,42.35294,-71.18763,Newton,MA,Massachusetts,TRUE,,13308,2614.1,25017,Middlesex,"{""25017"": 100}",Middlesex,25017,FALSE,FALSE,America/New_York
2459,42.31515,-71.19174,Newton Center,MA,Massachusetts,TRUE,,18604,1427,25017,Middlesex,"{""25017"": 100}",Middlesex,25017,FALSE,FALSE,America/New_York
2460,42.35206,-71.20835,Newtonville,MA,Massachusetts,TRUE,,10033,2874,25017,Middlesex,"{""25017"": 100}",Middlesex,25017,FALSE,FALSE,America/New_York
2461,42.31693,-71.20875,Newton Highlands,MA,Massachusetts,TRUE,,6717,1689.4,25017,Middlesex,"{""25017"": 100}",Middlesex,25017,FALSE,FALSE,America/New_York
2462,42.33102,-71.25599,Newton Lower Falls,MA,Massachusetts,TRUE,,1459,806.6,25017,Middlesex,"{""25017"": 100}",Middlesex,25017,FALSE,FALSE,America/New_York
2464,42.31274,-71.21981,Newton Upper Falls,MA,Massachusetts,TRUE,,3730,2615.8,25017,Middlesex,"{""25017"": 99.58, ""25021"": 0.42}",Middlesex|Norfolk,25017|25021,FALSE,FALSE,America/New_York
2465,42.34969,-71.22646,West Newton,MA,Massachusetts,TRUE,,11297,2027.7,25017,Middlesex,"{""25017"": 100}",Middlesex,25017,FALSE,FALSE,America/New_York
2466,42.34541,-71.24759,Auburndale,MA,Massachusetts,TRUE,,8553,2080.4,25017,Middlesex,"{""25017"": 100}",Middlesex,25017,FALSE,FALSE,America/New_York
2467,42.31725,-71.16096,Chestnut Hill,MA,Massachusetts,TRUE,,22325,1757.1,25021,Norfolk,"{""25021"": 57.05, ""25017"": 28.64, ""25025"": 14.31}",Norfolk|Middlesex|Suffolk,25021|25017|25025,FALSE,FALSE,America/New_York
2468,42.32777,-71.23142,Waban,MA,Massachusetts,TRUE,,5901,1483.3,25017,Middlesex,"{""25017"": 99.9, ""25021"": 0.1}",Middlesex|Norfolk,25017|25021,FALSE,FALSE,America/New_York
2472,42.37,-71.17713,Watertown,MA,Massachusetts,TRUE,,35317,3383.4,25017,Middlesex,"{""25017"": 100}",Middlesex,25017,FALSE,FALSE,America/New_York
2474,42.42053,-71.15666,Arlington,MA,Massachusetts,TRUE,,28283,3570.5,25017,Middlesex,"{""25017"": 100}",Middlesex,25017,FALSE,FALSE,America/New_York
2476,42.41597,-71.17437,Arlington,MA,Massachusetts,TRUE,,17732,3284.6,25017,Middlesex,"{""25017"": 100}",Middlesex,25017,FALSE,FALSE,America/New_York
2478,42.39602,-71.17955,Belmont,MA,Massachusetts,TRUE,,26966,2241.3,25017,Middlesex,"{""25017"": 100}",Middlesex,25017,FALSE,FALSE,America/New_York
2481,42.31064,-71.27779,Wellesley Hills,MA,Massachusetts,TRUE,,17262,1094.5,25021,Norfolk,"{""25021"": 100}",Norfolk,25021,FALSE,FALSE,America/New_York
2482,42.29455,-71.29859,Wellesley,MA,Massachusetts,TRUE,,10758,1116.3,25021,Norfolk,"{""25021"": 100}",Norfolk,25021,FALSE,FALSE,America/New_York
2492,42.27615,-71.24387,Needham,MA,Massachusetts,TRUE,,21481,872.5,25021,Norfolk,"{""25021"": 100}",Norfolk,25021,FALSE,FALSE,America/New_York
2493,42.35893,-71.30009,Weston,MA,Massachusetts,TRUE,,11443,262.7,25017,Middlesex,"{""25017"": 100}",Middlesex,25017,FALSE,FALSE,America/New_York
2494,42.29959,-71.2317,Needham Heights,MA,Massachusetts,TRUE,,10578,1458.4,25021,Norfolk,"{""25021"": 100}",Norfolk,25021,FALSE,FALSE,America/New_York
2532,41.75111,-70.59713,Buzzards Bay,MA,Massachusetts,TRUE,,13180,369.1,25001,Barnstable,"{""25001"": 89.94, ""25023"": 10.06}",Barnstable|Plymouth,25001|25023,FALSE,FALSE,America/New_York
2534,41.66626,-70.61628,Cataumet,MA,Massachusetts,TRUE,,1284,181,25001,Barnstable,"{""25001"": 100}",Barnstable,25001,FALSE,FALSE,America/New_York
2535,41.34896,-70.74629,Chilmark,MA,Massachusetts,TRUE,,2393,37.9,25007,Dukes,"{""25007"": 100}",Dukes,25007,FALSE,FALSE,America/New_York
2536,41.59706,-70.56677,East Falmouth,MA,Massachusetts,TRUE,,21100,297.7,25001,Barnstable,"{""25001"": 100}",Barnstable,25001,FALSE,FALSE,America/New_York
2537,41.72882,-70.44317,East Sandwich,MA,Massachusetts,TRUE,,6486,182.5,25001,Barnstable,"{""25001"": 100}",Barnstable,25001,FALSE,FALSE,America/New_York
2538,41.77872,-70.65077,East Wareham,MA,Massachusetts,TRUE,,4556,280.8,25023,Plymouth,"{""25023"": 100}",Plymouth,25023,FALSE,FALSE,America/New_York
2539,41.37994,-70.53227,Edgartown,MA,Massachusetts,TRUE,,5212,75.1,25007,Dukes,"{""25007"": 100}",Dukes,25007,FALSE,FALSE,America/New_York
2540,41.57128,-70.62807,Falmouth,MA,Massachusetts,TRUE,,8354,293.1,25001,Barnstable,"{""25001"": 100}",Barnstable,25001,FALSE,FALSE,America/New_York
2542,41.70194,-70.54824,Buzzards Bay,MA,Massachusetts,TRUE,,854,11.6,25001,Barnstable,"{""25001"": 100}",Barnstable,25001,FALSE,FALSE,America/New_York
2543,41.48731,-70.74525,Woods Hole,MA,Massachusetts,TRUE,,810,27.6,25007,Dukes,"{""25007"": 83.01, ""25001"": 16.99}",Dukes|Barnstable,25007|25001,FALSE,FALSE,America/New_York
2553,41.71297,-70.62011,Monument Beach,MA,Massachusetts,TRUE,,38,74.2,25001,Barnstable,"{""25001"": 100}",Barnstable,25001,FALSE,FALSE,America/New_York
2554,41.28555,-70.08043,Nantucket,MA,Massachusetts,TRUE,,14033,135.5,25019,Nantucket,"{""25019"": 100}",Nantucket,25019,FALSE,FALSE,America/New_York
2556,41.63903,-70.62521,North Falmouth,MA,Massachusetts,TRUE,,2586,253,25001,Barnstable,"{""25001"": 100}",Barnstable,25001,FALSE,FALSE,America/New_York
2557,41.44218,-70.56648,Oak Bluffs,MA,Massachusetts,TRUE,,1849,220.3,25007,Dukes,"{""25007"": 100}",Dukes,25007,FALSE,FALSE,America/New_York
2558,41.74453,-70.65377,Onset,MA,Massachusetts,TRUE,,1658,573.2,25023,Plymouth,"{""25023"": 100}",Plymouth,25023,FALSE,FALSE,America/New_York
2559,41.69237,-70.61374,Pocasset,MA,Massachusetts,TRUE,,2812,203.6,25001,Barnstable,"{""25001"": 100}",Barnstable,25001,FALSE,FALSE,America/New_York
2561,41.76782,-70.53281,Sagamore,MA,Massachusetts,TRUE,,260,121.1,25001,Barnstable,"{""25001"": 100}",Barnstable,25001,FALSE,FALSE,America/New_York
2562,41.78753,-70.52746,Sagamore Beach,MA,Massachusetts,TRUE,,3698,422.9,25001,Barnstable,"{""25001"": 100}",Barnstable,25001,FALSE,FALSE,America/New_York
2563,41.71995,-70.4818,Sandwich,MA,Massachusetts,TRUE,,10315,301.4,25001,Barnstable,"{""25001"": 100}",Barnstable,25001,FALSE,FALSE,America/New_York
2564,41.26552,-69.98608,Siasconset,MA,Massachusetts,TRUE,,243,15.5,25019,Nantucket,"{""25019"": 100}",Nantucket,25019,FALSE,FALSE,America/New_York
2568,41.44341,-70.61534,Vineyard Haven,MA,Massachusetts,TRUE,,8829,265.3,25007,Dukes,"{""25007"": 100}",Dukes,25007,FALSE,FALSE,America/New_York
2571,41.76184,-70.70138,Wareham,MA,Massachusetts,TRUE,,10538,217.6,25023,Plymouth,"{""25023"": 100}",Plymouth,25023,FALSE,FALSE,America/New_York
2575,41.39651,-70.65496,West Tisbury,MA,Massachusetts,TRUE,,2417,41,25007,Dukes,"{""25007"": 100}",Dukes,25007,FALSE,FALSE,America/New_York
2576,41.77807,-70.76338,West Wareham,MA,Massachusetts,TRUE,,4498,184.7,25023,Plymouth,"{""25023"": 100}",Plymouth,25023,FALSE,FALSE,America/New_York
2584,41.25753,-70.00522,Nantucket,MA,Massachusetts,TRUE,,23,65.1,25019,Nantucket,"{""25019"": 100}",Nantucket,25019,FALSE,FALSE,America/New_York
2601,41.66,-70.29327,Hyannis,MA,Massachusetts,TRUE,,16066,707.4,25001,Barnstable,"{""25001"": 100}",Barnstable,25001,FALSE,FALSE,America/New_York
2630,41.69674,-70.3052,Barnstable,MA,Massachusetts,TRUE,,2539,200.9,25001,Barnstable,"{""25001"": 100}",Barnstable,25001,FALSE,FALSE,America/New_York
2631,41.74673,-70.06894,Brewster,MA,Massachusetts,TRUE,,10189,177.2,25001,Barnstable,"{""25001"": 100}",Barnstable,25001,FALSE,FALSE,America/New_York
2632,41.66074,-70.34826,Centerville,MA,Massachusetts,TRUE,,12217,632.2,25001,Barnstable,"{""25001"": 100}",Barnstable,25001,FALSE,FALSE,America/New_York
2633,41.68949,-69.97397,Chatham,MA,Massachusetts,TRUE,,4536,202.9,25001,Barnstable,"{""25001"": 100}",Barnstable,25001,FALSE,FALSE,America/New_York
2635,41.62348,-70.44051,Cotuit,MA,Massachusetts,TRUE,,3673,258.4,25001,Barnstable,"{""25001"": 100}",Barnstable,25001,FALSE,FALSE,America/New_York
2637,41.70493,-70.27245,Cummaquid,MA,Massachusetts,TRUE,,351,175.5,25001,Barnstable,"{""25001"": 100}",Barnstable,25001,FALSE,FALSE,America/New_York
2638,41.73225,-70.19459,Dennis,MA,Massachusetts,TRUE,,3256,223,25001,Barnstable,"{""25001"": 100}",Barnstable,25001,FALSE,FALSE,America/New_York
2639,41.66639,-70.13535,Dennis Port,MA,Massachusetts,TRUE,,3387,467.6,25001,Barnstable,"{""25001"": 100}",Barnstable,25001,FALSE,FALSE,America/New_York
2641,41.75221,-70.15176,East Dennis,MA,Massachusetts,TRUE,,299,69.6,25001,Barnstable,"{""25001"": 100}",Barnstable,25001,FALSE,FALSE,America/New_York
2642,41.83976,-69.97711,Eastham,MA,Massachusetts,TRUE,,5772,159.6,25001,Barnstable,"{""25001"": 100}",Barnstable,25001,FALSE,FALSE,America/New_York
2643,41.75534,-69.94002,East Orleans,MA,Massachusetts,TRUE,,0,0,25001,Barnstable,"{""25001"": 100}",Barnstable,25001,FALSE,FALSE,America/New_York
2644,41.68361,-70.51202,Forestdale,MA,Massachusetts,TRUE,,3618,414,25001,Barnstable,"{""25001"": 100}",Barnstable,25001,FALSE,FALSE,America/New_York
2645,41.70352,-70.06215,Harwich,MA,Massachusetts,TRUE,,11060,252.3,25001,Barnstable,"{""25001"": 100}",Barnstable,25001,FALSE,FALSE,America/New_York
2646,41.67103,-70.07144,Harwich Port,MA,Massachusetts,TRUE,,1715,228.1,25001,Barnstable,"{""25001"": 100}",Barnstable,25001,FALSE,FALSE,America/New_York
2647,41.63127,-70.30909,Hyannis Port,MA,Massachusetts,TRUE,,228,204.1,25001,Barnstable,"{""25001"": 100}",Barnstable,25001,FALSE,FALSE,America/New_York
2648,41.67237,-70.41545,Marstons Mills,MA,Massachusetts,TRUE,,7592,293.6,25001,Barnstable,"{""25001"": 100}",Barnstable,25001,FALSE,FALSE,America/New_York
2649,41.61778,-70.49077,Mashpee,MA,Massachusetts,TRUE,,15234,251.4,25001,Barnstable,"{""25001"": 100}",Barnstable,25001,FALSE,FALSE,America/New_York
2650,41.7036,-69.96589,North Chatham,MA,Massachusetts,TRUE,,1017,287.9,25001,Barnstable,"{""25001"": 100}",Barnstable,25001,FALSE,FALSE,America/New_York
2652,42.0428,-70.09276,North Truro,MA,Massachusetts,TRUE,,924,42.5,25001,Barnstable,"{""25001"": 100}",Barnstable,25001,FALSE,FALSE,America/New_York
2653,41.76901,-69.9737,Orleans,MA,Massachusetts,TRUE,,6342,203.2,25001,Barnstable,"{""25001"": 100}",Barnstable,25001,FALSE,FALSE,America/New_York
2655,41.62972,-70.39263,Osterville,MA,Massachusetts,TRUE,,3535,210.9,25001,Barnstable,"{""25001"": 100}",Barnstable,25001,FALSE,FALSE,America/New_York
2657,42.06139,-70.19813,Provincetown,MA,Massachusetts,TRUE,,3681,147,25001,Barnstable,"{""25001"": 100}",Barnstable,25001,FALSE,FALSE,America/New_York
2659,41.68258,-70.02234,South Chatham,MA,Massachusetts,TRUE,,1090,212.3,25001,Barnstable,"{""25001"": 100}",Barnstable,25001,FALSE,FALSE,America/New_York
2660,41.70828,-70.15517,South Dennis,MA,Massachusetts,TRUE,,6767,312,25001,Barnstable,"{""25001"": 100}",Barnstable,25001,FALSE,FALSE,America/New_York
2663,41.90576,-69.989,South Wellfleet,MA,Massachusetts,TRUE,,446,60.3,25001,Barnstable,"{""25001"": 100}",Barnstable,25001,FALSE,FALSE,America/New_York
2664,41.67486,-70.19446,South Yarmouth,MA,Massachusetts,TRUE,,9720,537.3,25001,Barnstable,"{""25001"": 100}",Barnstable,25001,FALSE,FALSE,America/New_York
2666,41.98817,-70.04603,Truro,MA,Massachusetts,TRUE,,751,23.1,25001,Barnstable,"{""25001"": 100}",Barnstable,25001,FALSE,FALSE,America/New_York
2667,41.92937,-70.02074,Wellfleet,MA,Massachusetts,TRUE,,3925,89.5,25001,Barnstable,"{""25001"": 100}",Barnstable,25001,FALSE,FALSE,America/New_York
2668,41.70713,-70.36246,West Barnstable,MA,Massachusetts,TRUE,,2514,67.8,25001,Barnstable,"{""25001"": 100}",Barnstable,25001,FALSE,FALSE,America/New_York
2670,41.66,-70.17098,West Dennis,MA,Massachusetts,TRUE,,1071,194.7,25001,Barnstable,"{""25001"": 100}",Barnstable,25001,FALSE,FALSE,America/New_York
2671,41.66938,-70.11087,West Harwich,MA,Massachusetts,TRUE,,932,207.5,25001,Barnstable,"{""25001"": 100}",Barnstable,25001,FALSE,FALSE,America/New_York
2672,41.6357,-70.31878,West Hyannisport,MA,Massachusetts,TRUE,,0,0,25001,Barnstable,"{""25001"": 100}",Barnstable,25001,FALSE,FALSE,America/New_York
2673,41.6557,-70.24447,West Yarmouth,MA,Massachusetts,TRUE,,8969,373.6,25001,Barnstable,"{""25001"": 100}",Barnstable,25001,FALSE,FALSE,America/New_York
2675,41.70401,-70.22883,Yarmouth Port,MA,Massachusetts,TRUE,,6919,304.8,25001,Barnstable,"{""25001"": 100}",Barnstable,25001,FALSE,FALSE,America/New_York
2702,41.78452,-71.06112,Assonet,MA,Massachusetts,TRUE,,4445,102.1,25005,Bristol,"{""25005"": 100}",Bristol,25005,FALSE,FALSE,America/New_York
2703,41.93108,-71.29499,Attleboro,MA,Massachusetts,TRUE,,46479,670.5,25005,Bristol,"{""25005"": 100}",Bristol,25005,FALSE,FALSE,America/New_York
2713,41.42818,-70.89102,Cuttyhunk,MA,Massachusetts,TRUE,,42,4.5,25007,Dukes,"{""25007"": 100}",Dukes,25007,FALSE,FALSE,America/New_York
2715,41.81681,-71.15064,Dighton,MA,Massachusetts,TRUE,,3778,130.5,25005,Bristol,"{""25005"": 100}",Bristol,25005,FALSE,FALSE,America/New_York
2717,41.75405,-70.98312,East Freetown,MA,Massachusetts,TRUE,,4777,83.2,25005,Bristol,"{""25005"": 100}",Bristol,25005,FALSE,FALSE,America/New_York
2718,41.86902,-71.01128,East Taunton,MA,Massachusetts,TRUE,,7125,267.4,25005,Bristol,"{""25005"": 100}",Bristol,25005,FALSE,FALSE,America/New_York
2719,41.63945,-70.87322,Fairhaven,MA,Massachusetts,TRUE,,15878,495.1,25005,Bristol,"{""25005"": 100}",Bristol,25005,FALSE,FALSE,America/New_York
2720,41.73095,-71.10932,Fall River,MA,Massachusetts,TRUE,,31063,909.8,25005,Bristol,"{""25005"": 100}",Bristol,25005,FALSE,FALSE,America/New_York
2721,41.67451,-71.14869,Fall River,MA,Massachusetts,TRUE,,25922,2487.8,25005,Bristol,"{""25005"": 100}",Bristol,25005,FALSE,FALSE,America/New_York
2723,41.69237,-71.1309,Fall River,MA,Massachusetts,TRUE,,17111,4142.8,25005,Bristol,"{""25005"": 100}",Bristol,25005,FALSE,FALSE,America/New_York
2724,41.68372,-71.17949,Fall River,MA,Massachusetts,TRUE,,18758,4021.3,25005,Bristol,"{""25005"": 100}",Bristol,25005,FALSE,FALSE,America/New_York
2725,41.71253,-71.18426,Somerset,MA,Massachusetts,TRUE,,2300,374.2,25005,Bristol,"{""25005"": 100}",Bristol,25005,FALSE,FALSE,America/New_York
2726,41.76073,-71.14444,Somerset,MA,Massachusetts,TRUE,,15946,1114.1,25005,Bristol,"{""25005"": 100}",Bristol,25005,FALSE,FALSE,America/New_York
2738,41.7092,-70.76362,Marion,MA,Massachusetts,TRUE,,5312,145.2,25023,Plymouth,"{""25023"": 100}",Plymouth,25023,FALSE,FALSE,America/New_York
2739,41.6687,-70.81705,Mattapoisett,MA,Massachusetts,TRUE,,6563,146.2,25023,Plymouth,"{""25023"": 100}",Plymouth,25023,FALSE,FALSE,America/New_York
2740,41.63802,-70.93839,New Bedford,MA,Massachusetts,TRUE,,46336,3112.8,25005,Bristol,"{""25005"": 100}",Bristol,25005,FALSE,FALSE,America/New_York
2743,41.71323,-70.90054,Acushnet,MA,Massachusetts,TRUE,,10476,224,25005,Bristol,"{""25005"": 100}",Bristol,25005,FALSE,FALSE,America/New_York
2744,41.60789,-70.91286,New Bedford,MA,Massachusetts,TRUE,,12549,3724.4,25005,Bristol,"{""25005"": 100}",Bristol,25005,FALSE,FALSE,America/New_York
2745,41.70284,-70.94695,New Bedford,MA,Massachusetts,TRUE,,25013,983.5,25005,Bristol,"{""25005"": 100}",Bristol,25005,FALSE,FALSE,America/New_York
2746,41.66474,-70.945,New Bedford,MA,Massachusetts,TRUE,,16791,2275.5,25005,Bristol,"{""25005"": 100}",Bristol,25005,FALSE,FALSE,America/New_York
2747,41.6577,-71.01202,North Dartmouth,MA,Massachusetts,TRUE,,21500,202.5,25005,Bristol,"{""25005"": 100}",Bristol,25005,FALSE,FALSE,America/New_York
2748,41.56096,-70.97963,South Dartmouth,MA,Massachusetts,TRUE,,11501,191.3,25005,Bristol,"{""25005"": 100}",Bristol,25005,FALSE,FALSE,America/New_York
2760,41.97004,-71.33586,North Attleboro,MA,Massachusetts,TRUE,,29078,625.2,25005,Bristol,"{""25005"": 100}",Bristol,25005,FALSE,FALSE,America/New_York
2762,42.01409,-71.33642,Plainville,MA,Massachusetts,TRUE,,9872,346.9,25021,Norfolk,"{""25021"": 100}",Norfolk,25021,FALSE,FALSE,America/New_York
2763,41.96666,-71.30743,Attleboro Falls,MA,Massachusetts,TRUE,,1764,759.3,25005,Bristol,"{""25005"": 100}",Bristol,25005,FALSE,FALSE,America/New_York
2764,41.8562,-71.16022,North Dighton,MA,Massachusetts,TRUE,,4344,153.9,25005,Bristol,"{""25005"": 100}",Bristol,25005,FALSE,FALSE,America/New_York
2766,41.96402,-71.18418,Norton,MA,Massachusetts,TRUE,,19155,265.7,25005,Bristol,"{""25005"": 100}",Bristol,25005,FALSE,FALSE,America/New_York
2767,41.93939,-71.05191,Raynham,MA,Massachusetts,TRUE,,15337,239.2,25005,Bristol,"{""25005"": 100}",Bristol,25005,FALSE,FALSE,America/New_York
2769,41.84394,-71.24559,Rehoboth,MA,Massachusetts,TRUE,,12809,105.4,25005,Bristol,"{""25005"": 100}",Bristol,25005,FALSE,FALSE,America/New_York
2770,41.75875,-70.84048,Rochester,MA,Massachusetts,TRUE,,5716,68.2,25023,Plymouth,"{""25023"": 100}",Plymouth,25023,FALSE,FALSE,America/New_York
2771,41.83787,-71.31736,Seekonk,MA,Massachusetts,TRUE,,15573,326.9,25005,Bristol,"{""25005"": 100}",Bristol,25005,FALSE,FALSE,America/New_York
2777,41.75699,-71.21208,Swansea,MA,Massachusetts,TRUE,,17231,293.9,25005,Bristol,"{""25005"": 100}",Bristol,25005,FALSE,FALSE,America/New_York
2779,41.83492,-71.07543,Berkley,MA,Massachusetts,TRUE,,6789,158.7,25005,Bristol,"{""25005"": 100}",Bristol,25005,FALSE,FALSE,America/New_York
2780,41.90743,-71.11939,Taunton,MA,Massachusetts,TRUE,,52530,612.3,25005,Bristol,"{""25005"": 100}",Bristol,25005,FALSE,FALSE,America/New_York
2790,41.59967,-71.08266,Westport,MA,Massachusetts,TRUE,,16725,119.8,25005,Bristol,"{""25005"": 100}",Bristol,25005,FALSE,FALSE,America/New_York
2791,41.52262,-71.08266,Westport Point,MA,Massachusetts,TRUE,,316,93.7,25005,Bristol,"{""25005"": 100}",Bristol,25005,FALSE,FALSE,America/New_York